ENTITY_ID;OPERATING_COMPANY;ADDRESS;ZIP_CODE;CITY;LONGITUDE;LATITUDE;START_UP_DATE;LOADER_TYPE;NUMBER_OF_CHARGING_POINTS;CONNECTION_POWER_KW;PLUG_TYPES_1;POWER_1_KW;PLUG_TYPES_2;POWER_2_KW;PLUG_TYPES_3;POWER_3_KW;PLUG_TYPES_4;POWER_4_KW
1002;Volkswagen Sachsen GmbH, Die Gläserne Manufaktur;Lennéstraße 1;1069;Dresden;13.75427;51.04368;01.10.16;Schnellladeeinrichtung;2;93.0;DC Kupplung Combo, DC CHAdeMO;50.0;AC Kupplung Typ 2;43.0;;0.0;;0.0
1003;DREWAG Stadtwerke Dresden GmbH;Antonstraße 24;1097;Dresden;13.739641;51.064823;04.09.17;Schnellladeeinrichtung;2;93.0;DC Kupplung Combo, DC CHAdeMO;50.0;AC Kupplung Typ 2, AC Schuko;43.0;;0.0;;0.0
1004;DREWAG Stadtwerke Dresden GmbH;Wigardstraße 2;1097;Dresden;13.4964;51.57566;22.10.18;Normalladeeinrichtung;4;51.4;AC Steckdose Typ 2;22.0;AC Schuko;3.7;AC Steckdose Typ 2;22.0;AC Schuko;3.7
1005;Simmel AG;Antonstraße 2A;1097;Dresden;13.7464616;51.0640713;15.12.17;Normalladeeinrichtung;2;44.0;AC Steckdose Typ 2;22.0;AC Steckdose Typ 2;22.0;;0.0;;0.0
1006;DREWAG Stadtwerke Dresden GmbH;Scharfenberger Straße 66;1139;Dresden;13.688326;51.072415;22.10.18;Normalladeeinrichtung;4;51.4;AC Steckdose Typ 2;22.0;AC Schuko;3.7;AC Steckdose Typ 2;22.0;AC Schuko;3.7
1007;innogy SE;Rudolf-Walther-Straße 2;1156;Dresden;13.636646;51.037086;11.10.12;Normalladeeinrichtung;2;44.0;AC Steckdose Typ 2;22.0;AC Steckdose Typ 2;22.0;;0.0;;0.0
1008;DREWAG Stadtwerke Dresden GmbH;Gompitzer Höhe 2;1156;Dresden;13.631414;51.040065;25.06.18;Schnellladeeinrichtung;2;72.0;DC Kupplung Combo, DC CHAdeMO;50.0;AC Kupplung Typ 2;22.0;;0.0;;0.0
1009;DREWAG Stadtwerke Dresden GmbH;Fabrikstraße 5;1159;Dresden;13.709192;51.041247;22.10.18;Normalladeeinrichtung;4;51.4;AC Steckdose Typ 2;22.0;AC Schuko;3.7;AC Steckdose Typ 2;22.0;AC Schuko;3.7
1010;DREWAG Stadtwerke Dresden GmbH;Löbtauer Straße 21;1159;Dresden;13.71865;51.052879;22.10.18;Normalladeeinrichtung;4;51.4;AC Steckdose Typ 2;22.0;AC Schuko;3.7;AC Steckdose Typ 2;22.0;AC Schuko;3.7
1011;DREWAG Stadtwerke Dresden GmbH;Bayrische Straße 0;1169;Dresden;13.732656;51.039073;26.09.18;Schnellladeeinrichtung;2;72.0;AC Steckdose Typ 2;22.0;DC Kupplung Combo, DC CHAdeMO;50.0;;0.0;;0.0
1012;DREWAG Stadtwerke Dresden GmbH;Dohnaer Str.;1219;Dresden;13.773643;51.013771;02.12.18;Normalladeeinrichtung;2;22.0;AC Steckdose Typ 2;11.0;AC Steckdose Typ 2;11.0;;0.0;;0.0
1013;DREWAG Stadtwerke Dresden GmbH;Fiedlerstraße 21a;1307;Dresden;13.781678;51.054563;22.10.18;Normalladeeinrichtung;4;88.0;AC Steckdose Typ 2;22.0;AC Steckdose Typ 2;22.0;AC Steckdose Typ 2;22.0;AC Steckdose Typ 2;22.0
1014;DREWAG Stadtwerke Dresden GmbH;Berthold-Brecht-Allee 22;1309;Dresden;13.780581;51.041015;22.10.18;Normalladeeinrichtung;4;51.4;AC Steckdose Typ 2;22.0;AC Schuko;3.7;AC Steckdose Typ 2;22.0;AC Schuko;3.7
1015;APCOA PARKING Deutschland GmbH;Hüblerstr.8;1309;Dresden;13.8047302;51.0517908;01.12.16;Normalladeeinrichtung;2;22.0;AC Steckdose Typ 2;11.0;AC Steckdose Typ 2;11.0;;0.0;;0.0
1016;DREWAG Stadtwerke Dresden GmbH;Leonardo-da-Vinci-Straße 0A;1326;Dresden;13.864731;51.013049;28.06.16;Normalladeeinrichtung;2;22.0;AC Steckdose Typ 2, AC Schuko;11.0;AC Steckdose Typ 2, AC Schuko;11.0;;0.0;;0.0
1017;ENSO Energie Sachsen Ost AG;Sidonienstraße 1c;1445;Radebeul;13.679916;51.098846;22.10.18;Normalladeeinrichtung;4;44.0;AC Steckdose Typ 2;22.0;AC Schuko;3.7;AC Steckdose Typ 2;22.0;AC Schuko;3.7
1018;ENSO Energie Sachsen Ost AG;Schlossallee 2;1468;Moritzburg;13.678783;51.164053;22.10.18;Normalladeeinrichtung;4;44.0;AC Steckdose Typ 2;22.0;AC Schuko;3.7;AC Steckdose Typ 2;22.0;AC Schuko;3.7
1019;ENSO Energie Sachsen Ost AG;Schillerstraße 37;1558;Großenhain;13.53385;51.294624;19.09.18;Schnellladeeinrichtung;2;75.0;DC Kupplung Combo, DC CHAdeMO;50.0;AC Kupplung Typ 2;22.0;;0.0;;0.0
1020;Danpower-Gruppe;Am Bobersberg;1558;Großenhain;13.5400663;51.28819912;25.08.17;Normalladeeinrichtung;2;44.0;AC Steckdose Typ 2;22.0;AC Steckdose Typ 2;22.0;;0.0;;0.0
1021;ENSO Energie Sachsen Ost AG;Am Fiebig 3;1561;Thiendorf;13.732736;51.039026;17.10.16;Schnellladeeinrichtung;2;108.0;DC Kupplung Combo, DC CHAdeMO;50.0;AC Kupplung Typ 2;43.0;;0.0;;0.0
1022;Stadtwerke Riesa GmbH;Alleestraße 81 y;1591;Riesa;13.262848;51.320246;01.12.18;Normalladeeinrichtung;2;44.0;AC Steckdose Typ 2;22.0;AC Steckdose Typ 2;22.0;;0.0;;0.0
1023;ENSO Energie Sachsen Ost AG;Moritzburger Straße 2;1640;Coswig;13.581259;51.129769;22.10.18;Normalladeeinrichtung;3;44.0;AC Steckdose Typ 2;22.0;AC Schuko;3.7;AC Steckdose Typ 2;22.0;AC Schuko;3.7
1024;innogy SE;Niederauer Str. 44;1662;Meißen;13.500904;51.167403;26.07.11;Normalladeeinrichtung;2;44.0;AC Steckdose Typ 2;22.0;AC Steckdose Typ 2;22.0;;0.0;;0.0
1025;Allego GmbH;Im Industriegebiet 1;1683;Nossen;13.274002;51.082727;07.04.17;Schnellladeeinrichtung;2;75.0;DC Kupplung Combo;53.0;AC Kupplung Typ 2;22.0;;0.0;;0.0
1026;Allego GmbH;Im Industriegebiet 1;1683;Nossen;13.274002;51.082727;07.04.17;Schnellladeeinrichtung;2;75.0;DC Kupplung Combo;53.0;AC Kupplung Typ 2;22.0;;0.0;;0.0
1027;Allego GmbH;Im Industriegebiet 1;1683;Nossen;13.274002;51.082727;07.04.17;Schnellladeeinrichtung;2;93.0;DC Kupplung Combo, DC CHAdeMO;50.0;AC Kupplung Typ 2;43.0;;0.0;;0.0
1028;Autobahn Tank & Rast GmbH;Dresdner Tor Nord;1723;Wilsdruff;13.56221;51.06322;13.07.17;Schnellladeeinrichtung;2;250.0;DC Kupplung Combo, DC CHAdeMO;50.0;AC Kupplung Typ 2;42.0;;0.0;;0.0
1029;Autobahn Tank & Rast GmbH;Dresdner Tor Süd;1723;Wilsdruff;13.56956;51.06118;04.08.17;Schnellladeeinrichtung;2;250.0;DC Kupplung Combo, DC CHAdeMO;50.0;AC Kupplung Typ 2;42.0;;0.0;;0.0
1030;ENSO Energie Sachsen Ost AG;Dresdner Straße 26;1737;Tharandt;13.588637;50.98294;22.10.18;Normalladeeinrichtung;4;44.0;AC Steckdose Typ 2;22.0;AC Schuko;3.7;AC Steckdose Typ 2;22.0;AC Schuko;3.7
1031;ENSO Energie Sachsen Ost AG;Dresdner Str. 17;1773;Altenberg;13.755286;50.764811;19.05.16;Normalladeeinrichtung;3;43.6;DC Kupplung Combo, DC CHAdeMO;20.0;AC Steckdose Typ 2;20.0;AC Schuko;3.7;;0.0
1032;ENSO Energie Sachsen Ost AG;Dresdner Straße 17;1773;Altenberg;13.755286;50.764811;22.10.18;Normalladeeinrichtung;3;50.0;DC Kupplung Combo, DC CHAdeMO;20.0;AC Steckdose Typ 2;22.0;AC Schuko;3.7;;0.0
1033;Energieversorgung Pirna GmbH;Obere Burgstraße 6b;1796;Pirna;13.944001;50.961326;22.10.18;Normalladeeinrichtung;4;44.0;AC Steckdose Typ 2;22.0;AC Schuko;3.7;AC Steckdose Typ 2;22.0;AC Schuko;3.7
1034;ENSO Energie Sachsen Ost AG;Am Markt 2;1809;Dohna;13.857779;50.955056;08.12.16;Normalladeeinrichtung;2;22.0;AC Steckdose Typ 2;11.0;AC Steckdose Typ 2;11.0;;0.0;;0.0
1035;ENSO Energie Sachsen Ost AG;Dresdner Str. 3;1814;Bad;14.149496;50.918421;06.04.16;Normalladeeinrichtung;3;43.6;DC Kupplung Combo, DC CHAdeMO;20.0;AC Steckdose Typ 2;22.0;AC Schuko;3.7;;0.0
1036;ENSO Energie Sachsen Ost AG;Dresdner Straße 3;1814;Bad;14.149507;50.918452;22.10.18;Normalladeeinrichtung;2;44.0;DC Kupplung Combo, DC CHAdeMO;20.0;AC Steckdose Typ 2;22.0;AC Schuko;3.7;;0.0
1037;ENSO Energie Sachsen Ost AG;Elbweg 13;1824;Kurort;14.079159;50.956012;22.10.18;Normalladeeinrichtung;4;44.0;AC Steckdose Typ 2;22.0;AC Schuko;3.7;AC Steckdose Typ 2;22.0;AC Schuko;3.7
1038;ENSO Energie Sachsen Ost AG;Elbufer 5;1829;Stadt;14.032453;50.956385;29.11.18;Normalladeeinrichtung;4;33.0;AC Steckdose Typ 2;22.0;AC Schuko;3.7;AC Steckdose Typ 2;22.0;AC Schuko;3.7
1039;ENSO Energie Sachsen Ost AG;Altmarkt 14;1877;Bischofswerda;14.180383;51.127646;04.05.17;Normalladeeinrichtung;2;43.6;AC Steckdose Typ 2;11.0;AC Steckdose Typ 2;11.0;;0.0;;0.0
1040;ewag kamenz Energie und Wasserversorgung AG Kamenz;Markt 2;1917;Kamenz;14.095198;51.269848;11.12.17;Normalladeeinrichtung;2;33.0;AC Steckdose Typ 2;22.0;AC Steckdose Typ 2;22.0;;0.0;;0.0
1041;ewag kamenz Energie und Wasserversorgung AG Kamenz;Schulplatz 5;1917;Kamenz;14.094098;51.271285;11.12.17;Normalladeeinrichtung;2;33.0;AC Steckdose Typ 2;22.0;AC Steckdose Typ 2;22.0;;0.0;;0.0
1042;ewag kamenz Energie und Wasserversorgung AG Kamenz;Macherstraße 55/ Parkplatz Garnisonsplatz;1917;Kamenz;14.105646;51.282579;11.12.17;Normalladeeinrichtung;2;33.0;AC Steckdose Typ 2;22.0;AC Steckdose Typ 2;22.0;;0.0;;0.0
1043;Autobahn Tank & Rast GmbH;Oberlausitz Nord;2625;Bautzen;14.331987;51.199484;04.05.17;Schnellladeeinrichtung;2;250.0;DC Kupplung Combo, DC CHAdeMO;50.0;AC Kupplung Typ 2;42.0;;0.0;;0.0
1044;Autobahn Tank & Rast GmbH;Oberlausitz Süd;2625;Bautzen;14.328689;51.198549;28.07.17;Schnellladeeinrichtung;2;250.0;DC Kupplung Combo, DC CHAdeMO;50.0;AC Kupplung Typ 2;42.0;;0.0;;0.0
1045;Autohaus Kiethe OHG;Löbauer Strasse 62;2625;Bautzen;14.455208;51.177675;10.11.16;Normalladeeinrichtung;1;3.7;AC Steckdose Typ 2;3.7;;0.0;;0.0;;0.0
1046;Autohaus Ruffert GmbH;Muskauer Str. 31;2625;Bautzen;14.437878;51.18594;29.09.18;Normalladeeinrichtung;2;22.0;AC Steckdose Typ 2;11.0;AC Steckdose Typ 2;11.0;;0.0;;0.0
1047;ENSO Energie Sachsen Ost AG;Niedermarkt 1a;2681;Schirgiswalde-Kirschau;14.432227;51.077641;22.10.18;Normalladeeinrichtung;4;33.0;AC Steckdose Typ 2;22.0;AC Schuko;3.7;AC Steckdose Typ 2;22.0;AC Schuko;3.7
1048;Autohaus Ruffert GmbH;Weststr. 2;2708;Löbau;14.655267;51.107259;29.09.18;Normalladeeinrichtung;2;22.0;AC Steckdose Typ 2;11.0;AC Steckdose Typ 2;11.0;;0.0;;0.0
1049;ENSO Energie Sachsen Ost AG;Bautzener Str. 2;2742;Neusalza-Spremberg;14.530535;51.037525;30.06.16;Normalladeeinrichtung;4;43.6;AC Steckdose Typ 2;22.0;AC Schuko;3.7;AC Steckdose Typ 2;22.0;AC Schuko;3.7
1050;Stadtwerke Zittau GmbH;Breite Straße;2763;Zittau;14.80493333;50.8948833;01.07.16;Normalladeeinrichtung;2;75.0;AC Steckdose Typ 2, AC Schuko;22.0;AC Steckdose Typ 2, AC Schuko;22.0;;0.0;;0.0
1051;Versorgungsbetriebe Hoyerswerda GmbH;Markt 1;2977;Hoyerswerda;14.24506;51.43887;13.08.18;Normalladeeinrichtung;2;44.0;AC Steckdose Typ 2;22.0;AC Steckdose Typ 2;22.0;;0.0;;0.0
1052;Versorgungsbetriebe Hoyerswerda GmbH;Lausitzer Platz 1;2977;Hoyerswerda;14.2623;51.43923;13.08.18;Normalladeeinrichtung;2;44.0;AC Steckdose Typ 2;22.0;AC Steckdose Typ 2;22.0;;0.0;;0.0
1053;envia Mitteldeutsche Energie AG;Annahofer Graben 1-3;3099;Kolitz;14.28885;51.71768;31.12.14;Normalladeeinrichtung;2;44.0;AC Steckdose Typ 2;22.0;AC Steckdose Typ 2;22.0;;0.0;;0.0
1054;Städtische Werke Spremberg (Lausitz) GmbH;Georgenstraße 37;3130;Spremberg;14.379096;51.573321;04.08.17;Normalladeeinrichtung;2;44.0;AC Steckdose Typ 2;22.0;AC Steckdose Typ 2;22.0;;0.0;;0.0
1055;Städtische Werke Spremberg (Lausitz) GmbH;An der Lusatia 23-24;3130;Spremberg;14.3584;51.55888;16.03.18;Normalladeeinrichtung;2;44.0;AC Steckdose Typ 2;22.0;AC Steckdose Typ 2;22.0;;0.0;;0.0
1056;Stadtwerke Forst GmbH;Parkplatz Lindenplatz;3149;Forst;14.648418;51.745573;22.05.17;Normalladeeinrichtung;2;40.0;AC Steckdose Typ 2;20.0;AC Steckdose Typ 2;20.0;;0.0;;0.0
1057;Stadtwerke Forst GmbH;Wehrinselstraße , Parkplatz Rosengarten;3149;Forst;14.66155;51.72881;15.11.17;Normalladeeinrichtung;2;40.0;AC Steckdose Typ 2;20.0;AC Steckdose Typ 2;20.0;;0.0;;0.0
1058;Stadtwerke Forst GmbH;Heinrich-Heine Straße, Parkplatz Kreishaus;3149;Forst;14.653206;51.750235;15.11.17;Normalladeeinrichtung;2;40.0;AC Steckdose Typ 2;20.0;AC Steckdose Typ 2;20.0;;0.0;;0.0
1059;Energieversorgung Guben GmbH;Friedrich-Wilke-Platz;3172;Guben;14.71415;51.95067;09.09.17;Normalladeeinrichtung;2;44.0;AC Steckdose Typ 2;22.0;AC Steckdose Typ 2;22.0;;0.0;;0.0
1060;Stadtwerke Leipzig GmbH;Kurt-Schumacher Straße 6;4103;Leipzig;12.379215;51.344799;01.06.16;Normalladeeinrichtung;4;44.0;AC Steckdose Typ 2;11.0;AC Steckdose Typ 2;11.0;AC Steckdose Typ 2;11.0;AC Steckdose Typ 2;11.0
1061;Stadtwerke Leipzig GmbH;Johannisallee 20;4103;Leipzig;12.395254;51.332494;01.06.16;Normalladeeinrichtung;2;22.0;AC Steckdose Typ 2;11.0;AC Steckdose Typ 2;11.0;;0.0;;0.0
1062;agile accelerator GmbH;Brüderstr. 59;4103;Leipzig;12.38621;51.33278;11.09.17;Normalladeeinrichtung;4;44.0;AC Steckdose Typ 2;22.0;AC Steckdose Typ 2;22.0;AC Steckdose Typ 2;22.0;AC Steckdose Typ 2;22.0
1063;Stadtwerke Leipzig GmbH;Pfaffendorfer Straße 29;4105;Leipzig;12.372033;51.348799;01.01.12;Normalladeeinrichtung;1;3.7;AC Steckdose Typ 2, AC Schuko;3.7;;0.0;;0.0;;0.0
1064;Stadtwerke Leipzig GmbH;Pfaffendorfer Straße 6;4105;Leipzig;12.370884;51.344578;01.06.16;Normalladeeinrichtung;2;22.0;AC Steckdose Typ 2;11.0;AC Steckdose Typ 2;11.0;;0.0;;0.0
1065;Stadtwerke Leipzig GmbH;Nordplatz 3;4105;Leipzig;12.373175;51.351707;01.06.16;Normalladeeinrichtung;2;22.0;AC Steckdose Typ 2;11.0;AC Steckdose Typ 2;11.0;;0.0;;0.0
1066;Stadtwerke Leipzig GmbH;Pfaffendorfer Straße 29;4105;Leipzig;12.372073;51.348861;01.01.12;Normalladeeinrichtung;1;3.7;AC Steckdose Typ 2, AC Schuko;3.7;;0.0;;0.0;;0.0
1067;Stadtwerke Leipzig GmbH;Pfaffendorfer Straße 29;4105;Leipzig;12.372059;51.348832;01.01.12;Normalladeeinrichtung;1;3.7;AC Steckdose Typ 2, AC Schuko;3.7;;0.0;;0.0;;0.0
1068;Stadtwerke Leipzig GmbH;Pfaffendorfer Straße 29;4105;Leipzig;12.372049;51.348764;01.01.12;Normalladeeinrichtung;1;3.7;AC Schuko;3.7;;0.0;;0.0;;0.0
1069;Stadtwerke Leipzig GmbH;Georg Schumann Straße 2;4105;Leipzig;12.37707;51.357459;01.06.16;Normalladeeinrichtung;2;22.0;AC Steckdose Typ 2;11.0;AC Steckdose Typ 2;11.0;;0.0;;0.0
1070;Stadtwerke Leipzig GmbH;Reichsstraße 1;4105;Leipzig;12.376691;51.340508;01.02.16;Normalladeeinrichtung;4;50.0;AC Schuko;3.7;AC Steckdose Typ 2;22.0;AC Schuko;3.7;AC Steckdose Typ 2;22.0
1071;Stadtwerke Leipzig GmbH;Theresienstraße 4;4105;Leipzig;12.380288;51.358949;01.10.12;Normalladeeinrichtung;4;50.0;AC Schuko;3.7;AC Steckdose Typ 2;22.0;AC Schuko;3.7;AC Steckdose Typ 2;22.0
1072;Stadtwerke Leipzig GmbH;Am Sportforum 2;4105;Leipzig;12.353327;51.34213;31.05.14;Normalladeeinrichtung;4;50.0;AC Schuko;3.7;AC Steckdose Typ 2;22.0;AC Schuko;3.7;AC Steckdose Typ 2;22.0
1073;Stadtwerke Leipzig GmbH;Nordstraße 25;4105;Leipzig;12.375035;51.346486;01.06.17;Normalladeeinrichtung;2;50.0;AC Steckdose Typ 2;22.0;AC Steckdose Typ 2;22.0;;0.0;;0.0
1074;Stadtwerke Leipzig GmbH;Markgrafenstraße 2;4107;Leipzig;12.374587;51.336691;01.06.16;Normalladeeinrichtung;2;22.0;AC Steckdose Typ 2;11.0;AC Steckdose Typ 2;11.0;;0.0;;0.0
1075;Stadtwerke Leipzig GmbH;Peterssteinweg 19;4107;Leipzig;12.373996;51.332296;01.06.16;Normalladeeinrichtung;2;22.0;AC Steckdose Typ 2;11.0;AC Steckdose Typ 2;11.0;;0.0;;0.0
1076;Stadtwerke Leipzig GmbH;Riemannstraße 8;4107;Leipzig;12.379899;51.330377;01.06.16;Normalladeeinrichtung;2;22.0;AC Steckdose Typ 2;11.0;AC Steckdose Typ 2;11.0;;0.0;;0.0
1077;Stadtwerke Leipzig GmbH;Wächterstraße 13;4107;Leipzig;12.366802;51.333198;01.10.11;Normalladeeinrichtung;4;50.0;AC Schuko;3.7;AC Steckdose Typ 2;22.0;AC Schuko;3.7;AC Steckdose Typ 2;22.0
1078;Stadtwerke Leipzig GmbH;Mozartstraße 1-5;4107;Leipzig;12.36862;51.331742;01.04.16;Normalladeeinrichtung;1;20.0;AC Steckdose Typ 2;3.7;;0.0;;0.0;;0.0
1079;Stadtwerke Leipzig GmbH;Mozartstraße 1-5;4107;Leipzig;12.368279;51.331678;01.04.16;Normalladeeinrichtung;1;20.0;AC Steckdose Typ 2;3.7;;0.0;;0.0;;0.0
1080;Stadtwerke Leipzig GmbH;Mozartstraße 1-5;4107;Leipzig;12.367812;51.331598;01.04.16;Normalladeeinrichtung;1;20.0;AC Steckdose Typ 2;3.7;;0.0;;0.0;;0.0
1081;Stadtwerke Leipzig GmbH;Mozartstraße 1-5;4107;Leipzig;12.367364;51.331521;01.04.16;Normalladeeinrichtung;1;20.0;AC Steckdose Typ 2;3.7;;0.0;;0.0;;0.0
1082;APCOA PARKING Deutschland GmbH;Petersstraße 36-44;4109;Leipzig;12.3742305;51.3375282;01.12.16;Normalladeeinrichtung;2;11.0;AC Steckdose Typ 2;11.0;AC Steckdose Typ 2;11.0;;0.0;;0.0
1083;Stadtwerke Leipzig GmbH;Friedrich-Eber Straße 51;4109;Leipzig;12.362342;51.338701;01.06.16;Normalladeeinrichtung;2;22.0;AC Steckdose Typ 2;11.0;AC Steckdose Typ 2;11.0;;0.0;;0.0
1084;Stadtwerke Leipzig GmbH;Georgiring 3;4109;Leipzig;12.382769;51.340184;01.06.16;Normalladeeinrichtung;2;22.0;AC Steckdose Typ 2;11.0;AC Steckdose Typ 2;11.0;;0.0;;0.0
1085;Stadtwerke Leipzig GmbH;Augustusplatz 7;4109;Leipzig;12.381761;51.337889;01.06.16;Normalladeeinrichtung;2;22.0;AC Steckdose Typ 2;11.0;AC Steckdose Typ 2;11.0;;0.0;;0.0
1086;Stadtwerke Leipzig GmbH;Friedrich Ebert Straße 63;4109;Leipzig;12.361864;51.339545;01.01.12;Normalladeeinrichtung;1;3.7;AC Schuko;3.7;;0.0;;0.0;;0.0
1087;Stadtwerke Leipzig GmbH;Willmar Schwabe Straße 2-4;4109;Leipzig;12.357864;51.341697;01.06.16;Normalladeeinrichtung;2;22.0;AC Steckdose Typ 2;11.0;AC Steckdose Typ 2;11.0;;0.0;;0.0
1088;Stadtwerke Leipzig GmbH;Brühl 1;4109;Leipzig;12.376692;51.343758;01.01.13;Normalladeeinrichtung;1;3.7;AC Schuko;3.7;;0.0;;0.0;;0.0
1089;Stadtwerke Leipzig GmbH;Jahnallee 56;4109;Leipzig;12.339783;51.337952;01.06.16;Normalladeeinrichtung;2;22.0;AC Steckdose Typ 2;11.0;AC Steckdose Typ 2;11.0;;0.0;;0.0
1090;Stadtwerke Leipzig GmbH;Brühl 1;4109;Leipzig;12.376692;51.34371;01.01.13;Normalladeeinrichtung;1;3.7;AC Schuko;3.7;;0.0;;0.0;;0.0
1091;Stadtwerke Leipzig GmbH;Martin Lutrher Ring 4-6;4109;Leipzig;12.373184;51.33577;01.01.12;Normalladeeinrichtung;4;50.0;AC Schuko;3.7;AC Steckdose Typ 2;22.0;AC Schuko;3.7;AC Steckdose Typ 2;22.0
1092;Stadtwerke Leipzig GmbH;Ratsfreischulstraße 5;4109;Leipzig;12.371162;51.338069;01.05.16;Normalladeeinrichtung;4;50.0;AC Schuko;3.7;AC Steckdose Typ 2;22.0;AC Schuko;3.7;AC Steckdose Typ 2;22.0
1093;Stadtwerke Leipzig GmbH;Dittrichring 16;4109;Leipzig;12.371864;51.340876;01.06.16;Normalladeeinrichtung;4;50.0;AC Schuko;3.7;AC Steckdose Typ 2;22.0;AC Schuko;3.7;AC Steckdose Typ 2;22.0
1094;Stadtwerke Leipzig GmbH;Ritterstraße 28;4109;Leipzig;12.380434;51.341299;01.06.16;Normalladeeinrichtung;4;50.0;AC Steckdose Typ 2;22.0;AC Schuko;3.7;AC Steckdose Typ 2;22.0;AC Schuko;3.7
1095;Stadtwerke Leipzig GmbH;Richard Wagner Straße 10;4109;Leipzig;12.377814;51.343893;01.07.16;Normalladeeinrichtung;2;50.0;AC Steckdose Typ 2, AC Schuko;22.0;AC Steckdose Typ 2, AC Schuko;22.0;;0.0;;0.0
1096;Stadtwerke Leipzig GmbH;Willy-Brandt Platz 7;4109;Leipzig;12.379212;51.344946;28.06.17;Normalladeeinrichtung;2;20.0;DC Kupplung Combo, DC CHAdeMO;20.0;AC Steckdose Typ 2;22.0;;0.0;;0.0
1097;Stadtwerke Leipzig GmbH;Essener Straße 27;4129;Leipzig;12.395435;51.377046;01.01.14;Normalladeeinrichtung;4;50.0;AC Schuko;3.7;AC Steckdose Typ 2;22.0;AC Schuko;3.7;AC Steckdose Typ 2;22.0
1098;Stadtwerke Leipzig GmbH;Thaerstraße 1;4129;Leipzig;12.386422;51.368274;01.06.16;Normalladeeinrichtung;2;22.0;AC Steckdose Typ 2;11.0;AC Steckdose Typ 2;11.0;;0.0;;0.0
1099;Stadtwerke Leipzig GmbH;Blochmannstraße 59;4155;Leipzig;12.37362;51.362974;01.06.16;Normalladeeinrichtung;2;22.0;AC Steckdose Typ 2;11.0;AC Steckdose Typ 2;11.0;;0.0;;0.0
1100;Stadtwerke Leipzig GmbH;Handelsstraße 4;4156;Leipzig;12.400294;51.400675;23.03.17;Normalladeeinrichtung;1;20.0;DC Kupplung Combo, DC CHAdeMO;20.0;;0.0;;0.0;;0.0
1101;Stadtwerke Leipzig GmbH;Virchowstraße 91;4157;Leipzig;12.378675;51.375483;01.06.16;Normalladeeinrichtung;2;22.0;AC Steckdose Typ 2;11.0;AC Steckdose Typ 2;11.0;;0.0;;0.0
1102;innogy SE;Hugo-Junkers-Straße 3 Pforte WEST;4158;Leipzig;12.28257;51.40241;06.09.16;Normalladeeinrichtung;2;44.0;AC Steckdose Typ 2;22.0;AC Steckdose Typ 2;22.0;;0.0;;0.0
1103;innogy SE;Hugo-Junkers-Straße 3 Pforte WEST;4158;Leipzig;12.28257;51.40241;06.09.16;Normalladeeinrichtung;2;44.0;AC Steckdose Typ 2;22.0;AC Steckdose Typ 2;22.0;;0.0;;0.0
1104;innogy SE;Hugo-Junkers-Straße 3 Pforte WEST;4158;Leipzig;12.28257;51.40241;06.09.16;Normalladeeinrichtung;2;44.0;AC Steckdose Typ 2;22.0;AC Steckdose Typ 2;22.0;;0.0;;0.0
1105;innogy SE;Porschestraße 1 Hauptpforte NORD Tor 1;4158;Leipzig;12.29452;51.41088;06.09.16;Normalladeeinrichtung;2;44.0;AC Steckdose Typ 2;22.0;AC Steckdose Typ 2;22.0;;0.0;;0.0
1106;innogy SE;Porschestraße 1 Hauptpforte NORD Tor 1;4158;Leipzig;12.29452;51.41088;06.09.16;Normalladeeinrichtung;2;44.0;AC Steckdose Typ 2;22.0;AC Steckdose Typ 2;22.0;;0.0;;0.0
1107;innogy SE;Porschestraße 1 Hauptpforte NORD Tor 1;4158;Leipzig;12.29452;51.41088;06.09.16;Normalladeeinrichtung;2;44.0;AC Steckdose Typ 2;22.0;AC Steckdose Typ 2;22.0;;0.0;;0.0
1108;Stadtwerke Leipzig GmbH;Georg Schumann Straße 156;4159;Leipzig;12.349901;51.36644;01.06.16;Normalladeeinrichtung;2;22.0;AC Steckdose Typ 2;11.0;AC Steckdose Typ 2;11.0;;0.0;;0.0
1109;Stadtwerke Leipzig GmbH;Lindenauer Markt 19;4177;Leipzig;12.333714;51.337456;01.06.16;Normalladeeinrichtung;2;22.0;AC Steckdose Typ 2;11.0;AC Steckdose Typ 2;11.0;;0.0;;0.0
1110;Kaufland Warenhandel West-Sachsen GmbH & Co. KG;Lindenauer Markt 2;4177;Leipzig;12.335467;51.3369642;24.01.18;Schnellladeeinrichtung;2;93.0;AC Kupplung Typ 2;43.0;DC Kupplung Combo, DC CHAdeMO;50.0;;0.0;;0.0
1111;Stadtwerke Leipzig GmbH;Hans Driesch Straße 40;4179;Leipzig;12.313222;51.347594;01.06.16;Normalladeeinrichtung;2;22.0;AC Steckdose Typ 2;11.0;AC Steckdose Typ 2;11.0;;0.0;;0.0
1112;Stadtwerke Leipzig GmbH;Ludwig Hupfeld Straße 3;4179;Leipzig;12.300375;51.351696;01.01.14;Normalladeeinrichtung;4;50.0;AC Schuko;3.7;AC Steckdose Typ 2;22.0;AC Schuko;3.7;AC Steckdose Typ 2;22.0
1113;Stadtwerke Leipzig GmbH;Lützner Straße 125;4179;Leipzig;12.321156;51.330615;01.06.13;Normalladeeinrichtung;1;3.7;AC Steckdose Typ 2, AC Schuko;3.7;;0.0;;0.0;;0.0
1114;Stadtwerke Leipzig GmbH;Lützner Straße 125;4179;Leipzig;12.320062;51.331698;01.06.13;Normalladeeinrichtung;1;3.7;AC Steckdose Typ 2, AC Schuko;3.7;;0.0;;0.0;;0.0
1115;Stadtwerke Leipzig GmbH;Brünner Straße 12;4209;Leipzig;12.306496;51.324583;01.01.14;Normalladeeinrichtung;4;50.0;AC Schuko;3.7;AC Steckdose Typ 2;22.0;AC Schuko;3.7;AC Steckdose Typ 2;22.0
1116;Stadtwerke Leipzig GmbH;Schönauer Ring 85;4209;Leipzig;12.287191;51.323001;01.06.16;Normalladeeinrichtung;2;22.0;AC Steckdose Typ 2;11.0;AC Steckdose Typ 2;11.0;;0.0;;0.0
1117;Stadtwerke Leipzig GmbH;Semmelweißstraße 12;4217;Leipzig;12.400413;51.324223;01.06.16;Normalladeeinrichtung;4;44.0;AC Steckdose Typ 2;11.0;AC Steckdose Typ 2;11.0;AC Steckdose Typ 2;11.0;AC Steckdose Typ 2;11.0
1118;innogy SE;Gießerstraße 37;4229;Leipzig;12.327299;51.324518;21.11.11;Normalladeeinrichtung;2;44.0;AC Steckdose Typ 2;22.0;AC Steckdose Typ 2;22.0;;0.0;;0.0
1119;Stadtwerke Leipzig GmbH;Könneritzstraße 95;4229;Leipzig;12.341768;51.319443;01.06.16;Normalladeeinrichtung;2;22.0;AC Steckdose Typ 2;11.0;AC Steckdose Typ 2;11.0;;0.0;;0.0
1120;Stadtwerke Leipzig GmbH;Zur Weißen Mark 1;4249;Leipzig;12.314708;51.251353;01.01.13;Normalladeeinrichtung;4;50.0;AC Schuko;3.7;AC Steckdose Typ 2;22.0;AC Schuko;3.7;AC Steckdose Typ 2;22.0
1121;Stadtwerke Leipzig GmbH;Karl-Liebknecht Straße 52;4275;Leipzig;12.373396;51.324596;01.06.16;Normalladeeinrichtung;2;22.0;AC Steckdose Typ 2;11.0;AC Steckdose Typ 2;11.0;;0.0;;0.0
1122;Stadtwerke Leipzig GmbH;Bernhard Göring Straße 152;4277;Leipzig;12.376104;51.310845;01.01.12;Normalladeeinrichtung;1;3.7;AC Schuko;3.7;;0.0;;0.0;;0.0
1123;Stadtwerke Leipzig GmbH;Scheffelstraße 35;4277;Leipzig;12.372912;51.311695;01.06.16;Normalladeeinrichtung;2;22.0;AC Steckdose Typ 2;11.0;AC Steckdose Typ 2;11.0;;0.0;;0.0
1124;Stadtwerke Leipzig GmbH;Bornaische Straße 108;4277;Leipzig;12.384566;51.301227;01.06.16;Normalladeeinrichtung;2;22.0;AC Steckdose Typ 2;11.0;AC Steckdose Typ 2;11.0;;0.0;;0.0
1125;Stadtwerke Leipzig GmbH;Karl Liebknecht Straße 132;4277;Leipzig;12.373186;51.31451;01.10.11;Normalladeeinrichtung;4;50.0;AC Schuko;3.7;AC Steckdose Typ 2;22.0;AC Schuko;3.7;AC Steckdose Typ 2;22.0
1126;Stadtwerke Leipzig GmbH;Bornaische Straße 55;4277;Leipzig;12.382487;51.305046;05.07.18;Normalladeeinrichtung;2;22.0;AC Steckdose Typ 2;22.0;AC Steckdose Typ 2;22.0;;0.0;;0.0
1127;Kaufland Warenhandel Löbau GmbH & Co. KG;Dresdnerstraße 80;4317;Leipzig;12.4047889;51.3373523;24.01.18;Schnellladeeinrichtung;2;93.0;AC Kupplung Typ 2;43.0;DC Kupplung Combo, DC CHAdeMO;50.0;;0.0;;0.0
1128;Autohaus Müller Leipzig;Schongauer Str. 29-31;4328;Leipzig;12.471781;51.348367;05.09.18;Normalladeeinrichtung;2;22.0;AC Steckdose Typ 2;11.0;AC Steckdose Typ 2;11.0;;0.0;;0.0
1129;Autohaus Müller Leipzig GmbH;Schongauer Str 29-31;4328;Leipzig;12.471781;51.348367;09.11.18;Normalladeeinrichtung;2;44.0;AC Steckdose Typ 2;22.0;AC Steckdose Typ 2;22.0;;0.0;;0.0
1130;Stadtwerke Leipzig GmbH;Hertzstraße 4;4329;Leipzig;12.466561;51.367626;27.08.18;Normalladeeinrichtung;4;90.0;DC Kupplung Combo, DC CHAdeMO;20.0;AC Steckdose Typ 2;22.0;AC Steckdose Typ 2;22.0;AC Steckdose Typ 2;22.0
1131;Stadtwerke Leipzig GmbH;Stannebeinplatz 3;4347;Leipzig;12.407062;51.351586;01.06.16;Normalladeeinrichtung;2;22.0;AC Steckdose Typ 2;11.0;AC Steckdose Typ 2;11.0;;0.0;;0.0
1132;Stadtwerke Leipzig GmbH;Messe Allee 1;4356;Leipzig;12.399376;51.39844;01.01.14;Normalladeeinrichtung;4;50.0;AC Schuko;3.7;AC Steckdose Typ 2;22.0;AC Schuko;3.7;AC Steckdose Typ 2;22.0
1133;Stadtwerke Leipzig GmbH;Messe Allee 1;4356;Leipzig;12.395038;51.395998;01.01.14;Normalladeeinrichtung;4;50.0;AC Schuko;3.7;AC Steckdose Typ 2;22.0;AC Schuko;3.7;AC Steckdose Typ 2;22.0
1134;envia Mitteldeutsche Energie AG;Friedrich-Ebert-Straße 26;4416;Markkleeberg;12.369383;51.28402;31.12.14;Normalladeeinrichtung;2;44.0;AC Steckdose Typ 2;22.0;AC Steckdose Typ 2;22.0;;0.0;;0.0
1135;Stadtwerke Leipzig GmbH;Südring 21;4416;Markkleeberg;12.428057;51.281298;01.01.12;Normalladeeinrichtung;4;50.0;AC Schuko;3.7;AC Steckdose Typ 2;22.0;AC Schuko;3.7;AC Steckdose Typ 2;22.0
1136;Stadtverwaltung Markkleeberg;Rathausstraße 29;4416;Markkleeberg;12.372069;51.278532;15.09.17;Normalladeeinrichtung;1;22.0;AC Steckdose Typ 2;22.0;;0.0;;0.0;;0.0
1137;Stadtwerke Leipzig GmbH;Magdeborner Straße 2;4417;Markkleeberg;12.423812;51.28469;01.11.13;Normalladeeinrichtung;4;50.0;AC Schuko;3.7;AC Steckdose Typ 2;22.0;AC Schuko;3.7;AC Steckdose Typ 2;22.0
1138;envia Mitteldeutsche Energie AG;Otto-Schmidt-Straße;4425;Taucha;12.476382;51.372146;06.12.16;Schnellladeeinrichtung;2;93.0;AC Kupplung Typ 2;43.0;DC Kupplung Combo, DC CHAdeMO;50.0;;0.0;;0.0
1139;Allego GmbH;Bierweg 6;4435;Schkeuditz;12.19167;51.39956;30.10.15;Schnellladeeinrichtung;2;93.0;DC Kupplung Combo, DC CHAdeMO;50.0;AC Kupplung Typ 2;43.0;;0.0;;0.0
1140;Stadtwerke Leipzig GmbH;Terminalring 2;4435;Schkeuditz;12.221704;51.422048;09.04.18;Normalladeeinrichtung;2;22.0;AC Steckdose Typ 2;11.0;AC Steckdose Typ 2;11.0;;0.0;;0.0
1141;Stadtwerke Leipzig GmbH;Terminalring 2;4435;Schkeuditz;12.221665;51.421952;09.04.18;Normalladeeinrichtung;2;22.0;AC Steckdose Typ 2;11.0;AC Steckdose Typ 2;11.0;;0.0;;0.0
1142;envia Mitteldeutsche Energie AG;Hafenstraße 2;4442;Zwenkau;12.335186;51.23369;31.12.14;Normalladeeinrichtung;2;44.0;AC Steckdose Typ 2;22.0;AC Steckdose Typ 2;22.0;;0.0;;0.0
1143;Gemeinde Borsdorf;Rathausstraße 1;4451;Borsdorf;12.540421;51.346825;09.08.16;Normalladeeinrichtung;1;22.0;AC Steckdose Typ 2;22.0;;0.0;;0.0;;0.0
1144;Gemeinde Borsdorf;Heinrich-Kretschmann-Straße 14;4451;Borsdorf;12.539788;51.346964;07.12.17;Normalladeeinrichtung;2;22.0;AC Steckdose Typ 2;22.0;AC Steckdose Typ 2;22.0;;0.0;;0.0
1145;Stadtwerke Leipzig GmbH;Eisenbahnstraße 14;4509;Delitzsch;12.344463;51.524888;01.10.11;Normalladeeinrichtung;4;50.0;AC Schuko;3.7;AC Steckdose Typ 2;22.0;AC Schuko;3.7;AC Steckdose Typ 2;22.0
1146;Stadtwerke Leipzig GmbH;Markt 1;4509;Delitzsch;12.333105;51.522408;01.10.11;Normalladeeinrichtung;4;50.0;AC Schuko;3.7;AC Steckdose Typ 2;22.0;AC Schuko;3.7;AC Steckdose Typ 2;22.0
1147;Kaufland Vertrieb 220 GmbH & Co KG;Am Wilhelmsschacht 34;4552;Borna;12.488579;51.111864;06.11.18;Schnellladeeinrichtung;2;93.0;AC Kupplung Typ 2;43.0;DC Kupplung Combo, DC CHAdeMO;50.0;;0.0;;0.0
1148;Städtische Werke Borna GmbH;Am Wilhelmschacht 20;4552;Borna;12.48497;51.11474;01.10.18;Normalladeeinrichtung;2;11.0;AC Steckdose Typ 2;11.0;AC Steckdose Typ 2;11.0;;0.0;;0.0
1149;Städtische Werke Borna GmbH;Kasernenstraße Parkplatz;4552;Borna;12.18784;51.11808;01.10.18;Normalladeeinrichtung;2;11.0;AC Steckdose Typ 2;11.0;AC Steckdose Typ 2;11.0;;0.0;;0.0
1150;Städtische Werke Borna GmbH;Brauhausstraße Parkplatz;4552;Borna;12.49777;51.1225;01.10.18;Normalladeeinrichtung;2;11.0;AC Steckdose Typ 2;11.0;AC Steckdose Typ 2;11.0;;0.0;;0.0
1151;Städtische Werke Borna GmbH;Röthaer Straße Parkplatz;4552;Borna;12.49965;51.12817;01.10.18;Normalladeeinrichtung;2;22.0;AC Steckdose Typ 2;11.0;AC Steckdose Typ 2;11.0;;0.0;;0.0
1152;Städtische Werke Borna GmbH;Rudolf-Virchow-Straße Parkhaus;4552;Borna;12.50387;51.1352;01.10.18;Normalladeeinrichtung;2;22.0;AC Steckdose Typ 2;11.0;AC Steckdose Typ 2;11.0;;0.0;;0.0
1153;envia Mitteldeutsche Energie AG;Ernst-Schneller-Straße 1;4567;Kitzscher;12.55022;51.16385;31.12.14;Normalladeeinrichtung;2;44.0;AC Steckdose Typ 2;22.0;AC Steckdose Typ 2;22.0;;0.0;;0.0
1154;envia Mitteldeutsche Energie AG;Markt 17;4575;Neukieritzsch;12.411113;51.151658;31.12.14;Normalladeeinrichtung;2;44.0;AC Steckdose Typ 2;22.0;AC Steckdose Typ 2;22.0;;0.0;;0.0
1155;last Hotelinvest GmbH;August-Bebel-Straße 16/17;4600;Altenburg;12.43202591;50.98022268;01.05.18;Normalladeeinrichtung;1;22.0;AC Steckdose Typ 2;22.0;;0.0;;0.0;;0.0
1156;Autobahn Tank & Rast GmbH;Altenburger Land Nord;4626;Schmölln;12.305;50.861;02.06.17;Schnellladeeinrichtung;2;250.0;DC Kupplung Combo, DC CHAdeMO;50.0;AC Kupplung Typ 2;42.0;;0.0;;0.0
1157;Autobahn Tank & Rast GmbH;Altenburger Land Süd;4626;Schmölln;12.314;50.858;02.06.17;Schnellladeeinrichtung;2;250.0;DC Kupplung Combo, DC CHAdeMO;50.0;AC Kupplung Typ 2;42.0;;0.0;;0.0
1158;Thüringer Energie AG;Markt 1;4626;Schmölln;12.351819;50.894626;25.10.17;Normalladeeinrichtung;2;30.0;AC Steckdose Typ 2;22.0;AC Steckdose Typ 2;22.0;;0.0;;0.0
1159;Sandy Lehmann;Ballendorfer Straße 18a;4651;Bad;12.6450532;51.1449012;01.02.18;Normalladeeinrichtung;2;22.0;AC Steckdose Typ 2;22.0;AC Steckdose Typ 2;22.0;;0.0;;0.0
1160;Autobahn Tank & Rast GmbH;Muldental Nord;4668;Grimma;12.66;51.2803;01.06.17;Schnellladeeinrichtung;2;250.0;DC Kupplung Combo, DC CHAdeMO;50.0;AC Kupplung Typ 2;42.0;;0.0;;0.0
1161;Autobahn Tank & Rast GmbH;Muldental Süd;4668;Grimma;12.658;51.28;17.07.17;Schnellladeeinrichtung;2;250.0;DC Kupplung Combo, DC CHAdeMO;50.0;AC Kupplung Typ 2;42.0;;0.0;;0.0
1162;envia Mitteldeutsche Energie AG;Wedniger Straße 40;4668;Grimma;12.73762;51.25647;31.12.14;Normalladeeinrichtung;2;44.0;AC Steckdose Typ 2;22.0;AC Steckdose Typ 2;22.0;;0.0;;0.0
1163;Danpower-Gruppe;Bahnhofstraße 5;4668;Grimma;12.71906755;51.22559261;25.08.17;Normalladeeinrichtung;2;44.0;AC Steckdose Typ 2;22.0;AC Steckdose Typ 2;22.0;;0.0;;0.0
1164;envia Mitteldeutsche Energie AG;Altoschatzer Str. 6;4758;Oschatz;13.107235;51.297307;31.12.14;Normalladeeinrichtung;2;44.0;AC Steckdose Typ 2;22.0;AC Steckdose Typ 2;22.0;;0.0;;0.0
1165;envia Mitteldeutsche Energie AG;Friedrich-Ebert-Straße 2C;4808;Wurzen;12.740978;51.374011;31.12.14;Normalladeeinrichtung;2;44.0;AC Steckdose Typ 2;22.0;AC Steckdose Typ 2;22.0;;0.0;;0.0
1166;Sparkasse Elbe-Elster;Elsterstraße 21;4910;Elsterwerda;13.519239;51.458986;05.04.18;Normalladeeinrichtung;2;44.0;AC Steckdose Typ 2;22.0;AC Steckdose Typ 2;22.0;;0.0;;0.0
1167;Autohaus Berger GmbH;An der B;4910;Elsterwerda;13.499416;51.465758;10.08.18;Normalladeeinrichtung;2;22.0;AC Steckdose Typ 2;11.0;AC Steckdose Typ 2;11.0;;0.0;;0.0
1168;EVH GmbH;Bornknechtstraße 5;6108;Halle;11.96446;51.48047;27.03.16;Normalladeeinrichtung;2;44.0;AC Steckdose Typ 2;22.0;AC Steckdose Typ 2;22.0;;0.0;;0.0
1169;EVH GmbH;Hansering 5;6108;Halle;11.9755;51.48111;24.08.15;Normalladeeinrichtung;2;44.0;AC Steckdose Typ 2;22.0;AC Steckdose Typ 2;22.0;;0.0;;0.0
1170;EVH GmbH;Gustav-Anlauf-Straße;6108;Halle;11.97272;51.48242;30.04.15;Normalladeeinrichtung;2;44.0;AC Steckdose Typ 2;22.0;AC Steckdose Typ 2;22.0;;0.0;;0.0
1171;EVH GmbH;Oleariusstraße 1a;6108;Halle;11.9668;51.48325;02.07.15;Normalladeeinrichtung;2;44.0;AC Steckdose Typ 2;22.0;AC Steckdose Typ 2;22.0;;0.0;;0.0
1172;EVH GmbH;Universitätsring 10;6108;Halle;11.96682;51.48736;02.07.15;Normalladeeinrichtung;2;44.0;AC Steckdose Typ 2;22.0;AC Steckdose Typ 2;22.0;;0.0;;0.0
1173;EVH GmbH;Moritzzwinger 10;6108;Halle;11.96796;51.47897;03.06.15;Normalladeeinrichtung;2;44.0;AC Steckdose Typ 2;22.0;AC Steckdose Typ 2;22.0;;0.0;;0.0
1174;EVH GmbH;Liebenauer Straße 118;6110;Halle;11.97896;51.46389;30.04.15;Normalladeeinrichtung;2;44.0;AC Steckdose Typ 2;22.0;AC Steckdose Typ 2;22.0;;0.0;;0.0
1175;EVH GmbH;Lutherstraße 79;6110;Halle;11.97989;51.466242;12.03.18;Normalladeeinrichtung;2;44.0;AC Steckdose Typ 2;22.0;AC Steckdose Typ 2;22.0;;0.0;;0.0
1176;EVH GmbH;Pfännerhöhe 70;6110;Halle;11.973477;51.471545;12.03.18;Normalladeeinrichtung;4;44.0;AC Steckdose Typ 2;22.0;AC Steckdose Typ 2;22.0;AC Steckdose Typ 2;22.0;AC Steckdose Typ 2;22.0
1177;EVH GmbH;Freiimfelder Straße 74;6112;Halle;11.9954;51.48527;15.04.15;Normalladeeinrichtung;2;44.0;AC Steckdose Typ 2;22.0;AC Steckdose Typ 2;22.0;;0.0;;0.0
1178;envia Mitteldeutsche Energie AG;Magdeburger Straße 51;6112;Halle;11.983245;51.482069;31.12.14;Normalladeeinrichtung;2;44.0;AC Steckdose Typ 2;22.0;AC Steckdose Typ 2;22.0;;0.0;;0.0
1179;EVH GmbH;Äußere Hordorfer Straße 12;6114;Halle;11.98559;51.49615;08.04.16;Normalladeeinrichtung;2;44.0;AC Steckdose Typ 2;22.0;AC Steckdose Typ 2;22.0;;0.0;;0.0
1180;EVH GmbH;Delitzscher Straße 180;6116;Halle;12.03491;51.47899;03.07.15;Normalladeeinrichtung;2;44.0;AC Steckdose Typ 2;22.0;AC Steckdose Typ 2;22.0;;0.0;;0.0
1181;EVH GmbH;Dölauer Straße 77;6120;Halle;11.92701;51.50793;19.05.15;Normalladeeinrichtung;2;44.0;AC Steckdose Typ 2;22.0;AC Steckdose Typ 2;22.0;;0.0;;0.0
1182;EVH GmbH;Röntgenstraße 1;6120;Halle;11.87554;51.50251;17.07.17;Normalladeeinrichtung;2;44.0;AC Steckdose Typ 2;22.0;AC Steckdose Typ 2;22.0;;0.0;;0.0
1183;EVH GmbH;Walter-Hülse-Straße;6120;Halle;11.93749;51.49438;18.08.15;Normalladeeinrichtung;2;44.0;AC Steckdose Typ 2;22.0;AC Steckdose Typ 2;22.0;;0.0;;0.0
1184;EVH GmbH;Am Stadion 5;6122;Halle;11.91592;51.48168;22.04.15;Normalladeeinrichtung;4;88.0;AC Steckdose Typ 2;22.0;AC Steckdose Typ 2;22.0;AC Steckdose Typ 2;22.0;AC Steckdose Typ 2;22.0
1185;EVH GmbH;Heidestraße 37;6126;Halle;11.90736;51.48771;31.07.17;Normalladeeinrichtung;2;44.0;AC Steckdose Typ 2;22.0;AC Steckdose Typ 2;22.0;;0.0;;0.0
1186;EVH GmbH;Carl-Schurz-Straße 12;6130;Halle;11.982898;51.452283;16.11.16;Normalladeeinrichtung;2;44.0;AC Steckdose Typ 2;22.0;AC Steckdose Typ 2;22.0;;0.0;;0.0
1187;Stadtwerke Leipzig GmbH;Merseburger Straße 365;6132;Halle;11.98433;51.437687;01.01.14;Normalladeeinrichtung;4;50.0;AC Schuko;3.7;AC Steckdose Typ 2;22.0;AC Schuko;3.7;AC Steckdose Typ 2;22.0
1188;envia Mitteldeutsche Energie AG;Am Busch 19;6179;Teutschenthal;11.812557;51.448641;31.12.14;Normalladeeinrichtung;2;44.0;AC Steckdose Typ 2;22.0;AC Steckdose Typ 2;22.0;;0.0;;0.0
1189;envia Mitteldeutsche Energie AG;Industriestraße 10;6184;Kabelsketal;12.12833;51.443491;31.12.14;Normalladeeinrichtung;2;44.0;AC Steckdose Typ 2;22.0;AC Steckdose Typ 2;22.0;;0.0;;0.0
1190;EVH GmbH;Fischweg 17;6217;Merseburg;11.96814;51.37319;15.05.17;Normalladeeinrichtung;2;44.0;AC Steckdose Typ 2;22.0;DC Kupplung Combo, DC CHAdeMO;22.0;;0.0;;0.0
1191;Danpower-Gruppe;Friedensstraße 12;6308;Benndorf;11.49565794;51.57043827;11.08.17;Normalladeeinrichtung;2;44.0;AC Steckdose Typ 2;22.0;AC Steckdose Typ 2;22.0;;0.0;;0.0
1192;Köthen Energie GmbH;Lelitzer Straße 27 b;6366;Köthen;11.951005;51.74935;27.10.17;Normalladeeinrichtung;2;22.0;AC Steckdose Typ 2;22.0;AC Steckdose Typ 2;22.0;;0.0;;0.0
1193;Hotel Anhalt GmbH;Ludwigstraße 53;6366;Köthen;11.97954;51.74923;25.12.17;Normalladeeinrichtung;2;22.0;AC Steckdose Typ 2;22.0;AC Steckdose Typ 2;22.0;;0.0;;0.0
1194;Schubert Motors;Magdeburger Chaussee 11;6406;Bernburg;11.72406113;51.80947514;13.12.17;Schnellladeeinrichtung;2;53.0;AC Kupplung Typ 2;43.0;DC Kupplung Combo, DC CHAdeMO;50.0;;0.0;;0.0
1195;Stadtwerke Bernburg GmbH;Karlsplatz, in der Tiefgarage;6406;Bernburg;11.742687;51.79427;29.03.17;Normalladeeinrichtung;1;22.0;AC Steckdose Typ 2;22.0;;0.0;;0.0;;0.0
1196;Stadtwerke Bernburg GmbH;Kustrenaer Straße 98;6406;Bernburg;11.736209;51.782343;08.11.18;Normalladeeinrichtung;2;44.0;AC Steckdose Typ 2;22.0;AC Steckdose Typ 2;22.0;;0.0;;0.0
1197;Stadtwerke Bernburg GmbH;Zepziger Straße / Parkplatz Hagebaumarkt;6406;Bernburg;11.751754;51.781121;08.11.18;Normalladeeinrichtung;2;44.0;AC Steckdose Typ 2;22.0;AC Steckdose Typ 2;22.0;;0.0;;0.0
1198;Autobahn Tank & Rast GmbH;Plötzetal Ost;6420;Könnern;11.822067;51.655803;15.12.16;Schnellladeeinrichtung;2;250.0;DC Kupplung Combo, DC CHAdeMO;50.0;AC Kupplung Typ 2;42.0;;0.0;;0.0
1199;Autobahn Tank & Rast GmbH;Plötzetal West;6420;Könnern;11.818083;51.656181;15.12.16;Schnellladeeinrichtung;2;250.0;DC Kupplung Combo, DC CHAdeMO;50.0;AC Kupplung Typ 2;42.0;;0.0;;0.0
1200;Stadtwerke Aschersleben GmbH;Magdeburger Strasse 22a;6449;Aschersleben;11.449863;51.758889;23.06.17;Normalladeeinrichtung;2;44.0;AC Steckdose Typ 2;22.0;AC Steckdose Typ 2;22.0;;0.0;;0.0
1201;Stadtwerke Aschersleben GmbH;Düsteres Tor 2;6449;Aschersleben;11.453623;51.754573;20.09.17;Normalladeeinrichtung;2;44.0;AC Steckdose Typ 2;22.0;AC Steckdose Typ 2;22.0;;0.0;;0.0
1202;Stadtwerke Aschersleben GmbH;Oberstrasse 60;6449;Aschersleben;11.472237;51.759053;26.02.18;Normalladeeinrichtung;2;22.0;AC Steckdose Typ 2;22.0;AC Steckdose Typ 2;22.0;;0.0;;0.0
1203;Stadtwerke Aschersleben GmbH;Kopernikusstrasse 10;6449;Aschersleben;11.46610417;51.7632925;15.11.18;Normalladeeinrichtung;2;22.0;AC Steckdose Typ 2;22.0;AC Steckdose Typ 2;22.0;;0.0;;0.0
1204;Allego GmbH;Am Mittelfeld 5;6526;Sangerhausen;11.305058;51.450773;28.04.17;Schnellladeeinrichtung;2;93.0;DC Kupplung Combo;50.0;AC Kupplung Typ 2;43.0;;0.0;;0.0
1205;Allego GmbH;Am Mittelfeld 5;6526;Sangerhausen;11.305058;51.450773;28.04.17;Schnellladeeinrichtung;2;93.0;DC Kupplung Combo, DC CHAdeMO;50.0;AC Kupplung Typ 2;43.0;;0.0;;0.0
1206;Allego GmbH;Am Mittelfeld 5;6526;Sangerhausen;11.305058;51.450773;28.04.17;Schnellladeeinrichtung;2;75.0;DC Kupplung Combo;53.0;AC Kupplung Typ 2;22.0;;0.0;;0.0
1207;EVH GmbH;Schindelbruch 1;6536;Südharz;11.00067;51.59038;20.04.15;Normalladeeinrichtung;2;22.0;AC Steckdose Typ 2;11.0;AC Steckdose Typ 2;11.0;;0.0;;0.0
1208;EVH GmbH;Tyrahöhe 24;6547;Südharz;10.96309;51.56457;20.04.15;Normalladeeinrichtung;2;33.0;AC Steckdose Typ 2;11.0;AC Steckdose Typ 2;22.0;;0.0;;0.0
1209;Privatperson;Am Königstuhl 8;6556;Artern;11.302011;51.367887;25.02.18;Normalladeeinrichtung;2;44.0;AC Steckdose Typ 2;22.0;AC Steckdose Typ 2;22.0;;0.0;;0.0
1210;Privatperson;Am Königstuhl 8;6556;Artern;11.302011;51.367889;25.02.18;Normalladeeinrichtung;2;44.0;AC Steckdose Typ 2;22.0;AC Steckdose Typ 2;22.0;;0.0;;0.0
1211;Autobahn Tank & Rast GmbH;Osterfeld Ost;6667;Stößen;11.957702;51.105401;25.11.16;Schnellladeeinrichtung;2;250.0;DC Kupplung Combo, DC CHAdeMO;50.0;AC Kupplung Typ 2;42.0;;0.0;;0.0
1212;Autobahn Tank & Rast GmbH;Osterfeld West;6667;Stößen;11.954837;51.105341;25.11.16;Schnellladeeinrichtung;2;250.0;DC Kupplung Combo, DC CHAdeMO;50.0;AC Kupplung Typ 2;42.0;;0.0;;0.0
1213;innogy SE;Südring 120;6667;Weißenfels;11.963634;51.192038;05.12.12;Normalladeeinrichtung;2;44.0;AC Steckdose Typ 2;22.0;AC Steckdose Typ 2;22.0;;0.0;;0.0
1214;Stadtwerke Bitterfeld-Wolfen GmbH;Zörbiger Str. 2;6749;Bitterfeld-Wolfen;12.311306;51.626555;01.07.18;Normalladeeinrichtung;2;22.0;AC Steckdose Typ 2, AC Schuko;22.0;AC Steckdose Typ 2, AC Schuko;22.0;;0.0;;0.0
1215;Stadtwerke Bitterfeld-Wolfen GmbH;Steinfurther Straße 46;6766;Bitterfeld-Wolfen;12.27432;51.681403;01.07.18;Normalladeeinrichtung;2;22.0;AC Steckdose Typ 2, AC Schuko;22.0;AC Steckdose Typ 2, AC Schuko;22.0;;0.0;;0.0
1216;Stadtwerke Bitterfeld-Wolfen GmbH;Bahnhofstraße 1;6766;Bitterfeld-Wolfen;12.279107;51.662022;01.07.18;Normalladeeinrichtung;2;22.0;AC Steckdose Typ 2, AC Schuko;22.0;AC Steckdose Typ 2, AC Schuko;22.0;;0.0;;0.0
1217;Autobahn Tank & Rast GmbH;Köckern Ost;6794;Köckern;12.185403;51.606076;04.04.16;Schnellladeeinrichtung;2;100.0;DC Kupplung Combo, DC CHAdeMO;50.0;AC Kupplung Typ 2;42.0;;0.0;;0.0
1218;Autobahn Tank & Rast GmbH;Köckern West;6794;Köckern;12.184917;51.608724;12.02.16;Schnellladeeinrichtung;2;100.0;DC Kupplung Combo, DC CHAdeMO;50.0;AC Kupplung Typ 2;42.0;;0.0;;0.0
1219;Allego GmbH;Zunftstraße 12;6847;Dessau-Roßlau;12.218428;51.817284;30.10.15;Schnellladeeinrichtung;2;93.0;DC Kupplung Combo, DC CHAdeMO;50.0;AC Kupplung Typ 2;43.0;;0.0;;0.0
1220;Stadtwerke Lutherstadt Wittenberg GmbH;Am Hauptbahnhof;6886;Lutherstadt;12.66042;51.86766;09.12.16;Normalladeeinrichtung;2;44.0;AC Steckdose Typ 2;22.0;AC Steckdose Typ 2;22.0;;0.0;;0.0
1221;Stadtwerke Lutherstadt Wittenberg GmbH;Wilhelm-Weber-Str. 4;6886;Lutherstadt;12.653;51.8651;12.11.18;Normalladeeinrichtung;2;44.0;AC Steckdose Typ 2;22.0;AC Steckdose Typ 2;22.0;;0.0;;0.0
1222;Stadtwerke Lutherstadt Wittenberg GmbH;Elbstraße /Wallstraße Parkplatz 3;6886;Lutherstadt;12.6428;51.865;12.11.18;Normalladeeinrichtung;2;44.0;AC Steckdose Typ 2;22.0;AC Steckdose Typ 2;22.0;;0.0;;0.0
1223;Stadtwerke Lutherstadt Wittenberg GmbH;Wallstraße / Schloßplatz 1d;6886;Lutherstadt;12.6395;51.8655;12.11.18;Normalladeeinrichtung;2;44.0;AC Steckdose Typ 2;22.0;AC Steckdose Typ 2;22.0;;0.0;;0.0
1224;Stadtwerke Lutherstadt Wittenberg GmbH;Lutherstr. 56;6886;Lutherstadt;12.6433;51.871;12.11.18;Normalladeeinrichtung;2;44.0;AC Steckdose Typ 2;22.0;AC Steckdose Typ 2;22.0;;0.0;;0.0
1225;Autohaus Müller Wittenberg GmbH;Dessauer Str. 9;6886;Wittenberg;12.616745;51.865679;10.08.18;Normalladeeinrichtung;2;22.0;AC Steckdose Typ 2;11.0;AC Steckdose Typ 2;11.0;;0.0;;0.0
1226;Stadtwerke Lutherstadt Wittenberg GmbH;Westendstr. 32;6895;Zahna-Elster;12.780153;51.913268;01.09.17;Normalladeeinrichtung;2;44.0;AC Steckdose Typ 2;22.0;AC Steckdose Typ 2;22.0;;0.0;;0.0
1227;Autoreparatur Schöne;Am Gorrenberg 28;6917;Jessen/Elster;12.980111;51.798389;05.12.17;Normalladeeinrichtung;1;22.0;AC Steckdose Typ 2, AC Schuko;22.0;;0.0;;0.0;;0.0
1228;Autoreparatur Schöne;Am Gorrenberg 28;6917;Jessen/Elster;12.980111;51.798389;05.12.17;Normalladeeinrichtung;1;22.0;AC Steckdose Typ 2, AC Schuko;22.0;;0.0;;0.0;;0.0
1229;Stadtwerke Saalfeld GmbH;Kulmbacher Str.     P+R Parkplatz;7318;Saalfeld;11.373572;50.649907;25.11.16;Normalladeeinrichtung;2;22.0;AC Steckdose Typ 2, AC Schuko;22.0;AC Steckdose Typ 2, AC Schuko;22.0;;0.0;;0.0
1230;Stadtwerke Saalfeld GmbH;Feengrottenweg 2;7318;Saalfeld/Saale;11.341301;50.635303;30.09.17;Normalladeeinrichtung;2;22.0;AC Steckdose Typ 2, AC Schuko;22.0;AC Steckdose Typ 2, AC Schuko;22.0;;0.0;;0.0
1231;Thüringer Energie AG;Parkstraße 8;7356;Bad;11.642875;50.44941;20.07.17;Normalladeeinrichtung;2;30.0;AC Steckdose Typ 2;22.0;AC Steckdose Typ 2;22.0;;0.0;;0.0
1232;PEM-energy GmbH;Ortsstraße 21;7381;Oppurg;11.670448;50.719473;03.04.18;Normalladeeinrichtung;2;22.0;AC Steckdose Typ 2;22.0;AC Steckdose Typ 2;22.0;;0.0;;0.0
1233;Stadtwerke Energie Jena-Pößneck GmbH;Brauhausgasse 1;7381;Pößneck;11.592339;50.695369;01.04.17;Normalladeeinrichtung;2;44.0;AC Steckdose Typ 2, AC Schuko;22.0;AC Steckdose Typ 2, AC Schuko;22.0;;0.0;;0.0
1234;Thüringer Energie AG;Bahnhofstraße 7;7422;Bad;11.270342;50.683744;28.08.17;Normalladeeinrichtung;2;30.0;AC Steckdose Typ 2;22.0;AC Steckdose Typ 2;22.0;;0.0;;0.0
1235;Energieversorgung Gera GmbH;Neue Straße 5;7545;Gera;12.076573;50.879771;13.01.17;Normalladeeinrichtung;2;44.0;AC Steckdose Typ 2, AC Schuko;22.0;AC Steckdose Typ 2, AC Schuko;22.0;;0.0;;0.0
1236;Energieversorgung Gera GmbH;Franz-Mehring-Straße;7545;Gera;12.079147;50.884067;06.02.17;Normalladeeinrichtung;2;44.0;AC Steckdose Typ 2, AC Schuko;22.0;AC Steckdose Typ 2, AC Schuko;22.0;;0.0;;0.0
1237;Energieversorgung Gera GmbH;Gagarin-Straße 85;7545;Gera;12.084449;50.886444;23.01.18;Normalladeeinrichtung;2;44.0;AC Steckdose Typ 2;22.0;AC Steckdose Typ 2;22.0;;0.0;;0.0
1238;Energieversorgung Gera GmbH;Brücken-Straße 99;7545;Gera;12.083811;50.871744;09.02.18;Normalladeeinrichtung;2;44.0;AC Steckdose Typ 2;22.0;AC Steckdose Typ 2;22.0;;0.0;;0.0
1239;Energieversorgung Gera GmbH;Naulitzer Straße 53;7546;Gera;12.120721;50.87735;13.01.17;Normalladeeinrichtung;2;44.0;AC Steckdose Typ 2, AC Schuko;22.0;AC Steckdose Typ 2, AC Schuko;22.0;;0.0;;0.0
1240;Energieversorgung Gera GmbH;Parkstraße AC;7548;Gera;12.074507;50.881207;10.01.18;Normalladeeinrichtung;2;44.0;AC Steckdose Typ 2;22.0;AC Steckdose Typ 2;22.0;;0.0;;0.0
1241;Energieversorgung Gera GmbH;Zeulsdorfer-Straße 97;7549;Gera;12.064685;50.844821;28.12.17;Normalladeeinrichtung;2;44.0;AC Steckdose Typ 2;22.0;AC Steckdose Typ 2;22.0;;0.0;;0.0
1242;Energieversorgung Gera GmbH;Kaimberger-Straße 1;7551;Gera;12.087841;50.848557;30.11.17;Normalladeeinrichtung;2;44.0;AC Steckdose Typ 2;22.0;AC Steckdose Typ 2;22.0;;0.0;;0.0
1243;Cloppenburg GmbH;Otto-von-Guericke-Str. 1;7552;Gera;12.103948;50.90132;26.10.18;Normalladeeinrichtung;2;44.0;AC Steckdose Typ 2;22.0;AC Steckdose Typ 2;22.0;;0.0;;0.0
1244;Thüringer Energie AG;Bahnhofstraße;7580;Ronneburg;12.183;50.860774;26.10.17;Normalladeeinrichtung;2;30.0;AC Steckdose Typ 2;22.0;AC Steckdose Typ 2;22.0;;0.0;;0.0
1245;Thüringer Energie AG;Am Sommerbad;7586;Bad;12.010706;50.933874;25.10.17;Normalladeeinrichtung;2;30.0;AC Steckdose Typ 2;22.0;AC Steckdose Typ 2;22.0;;0.0;;0.0
1246;Stadtwerke Eisenberg Energie GmbH;Walther-Rathenau-Str.  3;7607;Eisenberg;11.897986;50.969732;09.03.17;Normalladeeinrichtung;2;22.0;AC Steckdose Typ 2, AC Schuko;11.0;AC Steckdose Typ 2;11.0;;0.0;;0.0
1247;Stadtwerke Eisenberg Energie GmbH;Burgstraße 7;7607;Eisenberg;11.92447;50.966455;17.11.17;Normalladeeinrichtung;2;22.0;AC Steckdose Typ 2;11.0;AC Steckdose Typ 2;11.0;;0.0;;0.0
1248;Stadtwerke Energie Jena-Pößneck GmbH;Am Markt 26;7616;Bürgel;11.753705;50.942151;01.06.18;Normalladeeinrichtung;2;44.0;AC Steckdose Typ 2, AC Schuko;22.0;AC Steckdose Typ 2, AC Schuko;22.0;;0.0;;0.0
1249;Allego GmbH;Kraftsdorfer Straße 1;7629;Hermsdorf;11.872676;50.889776;29.10.15;Schnellladeeinrichtung;2;93.0;DC Kupplung Combo, DC CHAdeMO;50.0;AC Kupplung Typ 2;43.0;;0.0;;0.0
1250;Stadtwerke Energie Jena-Pößneck GmbH;Am Alten Versuchsfeld 1;7629;Hermsdorf;11.85323601;50.90064462;01.08.18;Normalladeeinrichtung;2;44.0;AC Steckdose Typ 2, AC Schuko;22.0;AC Steckdose Typ 2, AC Schuko;22.0;;0.0;;0.0
1251;Autobahn Tank & Rast GmbH;Hermsdorfer Kreuz West;7629;Schleifreisen;11.846279;50.87499;29.07.16;Schnellladeeinrichtung;2;100.0;DC Kupplung Combo, DC CHAdeMO;50.0;AC Kupplung Typ 2;42.0;;0.0;;0.0
1252;Thüringer Energie AG;Jenaische Straße;7639;Bad;11.86024;50.916369;26.10.17;Normalladeeinrichtung;2;30.0;AC Steckdose Typ 2;22.0;AC Steckdose Typ 2;22.0;;0.0;;0.0
1253;Autobahn Tank & Rast GmbH;Teufelstal Nord;7646;Bollberg;11.808342;50.877326;23.12.16;Schnellladeeinrichtung;2;250.0;DC Kupplung Combo, DC CHAdeMO;50.0;AC Kupplung Typ 2;42.0;;0.0;;0.0
1254;Stadtwerke Stadtroda GmbH;Amtsplatz;7646;Stadtroda;11.726866;50.857739;11.04.17;Normalladeeinrichtung;2;22.0;AC Steckdose Typ 2, AC Schuko;22.0;AC Steckdose Typ 2, AC Schuko;22.0;;0.0;;0.0
1255;Stadtwerke Stadtroda GmbH;Breiter Weg 58;7646;Stadtroda;11.738843;50.865333;16.10.17;Normalladeeinrichtung;2;44.0;AC Steckdose Typ 2, AC Schuko;22.0;AC Steckdose Typ 2, AC Schuko;22.0;;0.0;;0.0
1256;Stadtwerke Stadtroda GmbH;Breiter Weg 58;7646;Stadtroda;11.73671;50.858353;16.10.17;Normalladeeinrichtung;2;44.0;AC Steckdose Typ 2;22.0;AC Steckdose Typ 2;22.0;;0.0;;0.0
1257;Stadtwerke Stadtroda GmbH;Am Bahnhof;7646;Stadtroda;11.750476;50.885107;16.10.17;Normalladeeinrichtung;2;44.0;AC Steckdose Typ 2;22.0;AC Steckdose Typ 2;22.0;;0.0;;0.0
1258;Stadtwerke Stadtroda GmbH;August-Bebel-Straße 5;7646;Stadtroda;11.736912;50.859878;30.07.18;Normalladeeinrichtung;2;44.0;AC Steckdose Typ 2;22.0;AC Steckdose Typ 2;22.0;;0.0;;0.0
1259;Stadtwerke Energie Jena-Pößneck GmbH;Keßlerstraße 28;7743;Jena;11.5887;50.89954;01.01.14;Normalladeeinrichtung;2;44.0;AC Steckdose Typ 2, AC Schuko;22.0;AC Steckdose Typ 2, AC Schuko;22.0;;0.0;;0.0
1260;Stadtwerke Energie Jena-Pößneck GmbH;Stockholmer Str. 9;7743;Jena;11.61594;50.87816;01.01.15;Normalladeeinrichtung;2;44.0;AC Steckdose Typ 2, AC Schuko;22.0;AC Steckdose Typ 2, AC Schuko;22.0;;0.0;;0.0
1261;Stadtwerke Energie Jena-Pößneck GmbH;Brückenstraße 6;7743;Jena;11.619419;50.956784;01.03.17;Normalladeeinrichtung;1;22.0;AC Steckdose Typ 2;22.0;;0.0;;0.0;;0.0
1262;Stadtwerke Energie Jena-Pößneck GmbH;Brückenstraße 6;7743;Jena;11.619419;50.956784;01.03.17;Normalladeeinrichtung;1;22.0;AC Steckdose Typ 2;22.0;;0.0;;0.0;;0.0
1263;Stadtwerke Energie Jena-Pößneck GmbH;Knebelstraße 10;7743;Jena;11.586439;50.925541;01.03.13;Normalladeeinrichtung;2;44.0;AC Steckdose Typ 2, AC Schuko;22.0;AC Steckdose Typ 2, AC Schuko;22.0;;0.0;;0.0
1264;Stadtwerke Energie Jena-Pößneck GmbH;Knebelstraße 10;7743;Jena;11.5865735;50.92523318;01.07.15;Normalladeeinrichtung;2;44.0;AC Steckdose Typ 2, AC Schuko;22.0;AC Steckdose Typ 2, AC Schuko;22.0;;0.0;;0.0
1265;job Jenaer Objektmanagement- und Betriebsgesellschaft mbH;Zeitzer Straße 6;7743;Jena;11.601545;50.945745;14.03.16;Normalladeeinrichtung;4;88.0;AC Steckdose Typ 2, AC Schuko;22.0;AC Steckdose Typ 2, AC Schuko;22.0;AC Steckdose Typ 2, AC Schuko;22.0;AC Steckdose Typ 2, AC Schuko;22.0
1266;Stadtwerke Energie Jena-Pößneck GmbH;Eichplatz;7745;Jena;11.58534;50.928344;01.01.16;Normalladeeinrichtung;4;44.0;AC Steckdose Typ 2, AC Schuko;22.0;AC Steckdose Typ 2, AC Schuko;22.0;AC Steckdose Typ 2, AC Schuko;22.0;AC Steckdose Typ 2, AC Schuko;22.0
1267;Stadtwerke Energie Jena-Pößneck GmbH;Rudolstädter Straße 39;7745;Jena;11.58306;50.896564;01.06.11;Normalladeeinrichtung;2;22.0;AC Steckdose Typ 2, AC Schuko;11.0;AC Steckdose Typ 2, AC Schuko;11.0;;0.0;;0.0
1268;Stadtwerke Energie Jena-Pößneck GmbH;Damaschkeweg 65;7745;Jena;11.58543;50.899872;01.03.17;Normalladeeinrichtung;1;22.0;AC Steckdose Typ 2;22.0;;0.0;;0.0;;0.0
1269;Stadtwerke Energie Jena-Pößneck GmbH;Keßlerstraße 29;7745;Jena;11.5892339;50.695369;06.10.16;Schnellladeeinrichtung;2;93.0;AC Kupplung Typ 2;43.0;DC Kupplung Combo, DC CHAdeMO;50.0;;0.0;;0.0
1270;job Jenaer Objektmanagement- und Betriebsgesellschaft mbH;Friedrich-Schelling-Straße 0;7745;Jena;11.570212;50.928874;01.01.17;Normalladeeinrichtung;2;44.0;AC Steckdose Typ 2, AC Schuko;22.0;AC Steckdose Typ 2, AC Schuko;22.0;;0.0;;0.0
1271;job Jenaer Objektmanagement- und Betriebsgesellschaft mbH;Friedrich-Schelling-Straße 15;7745;Jena;11.56744748;50.92784735;01.01.17;Normalladeeinrichtung;2;44.0;AC Steckdose Typ 2, AC Schuko;22.0;AC Steckdose Typ 2, AC Schuko;22.0;;0.0;;0.0
1272;Autohaus Fiebig GmbH;Göschwitzer Str. 2;7745;Jena;11.59386;50.897593;13.10.18;Normalladeeinrichtung;4;88.0;AC Steckdose Typ 2;22.0;AC Steckdose Typ 2;22.0;AC Steckdose Typ 2;22.0;AC Steckdose Typ 2;22.0
1273;job Jenaer Objektmanagement- und Betriebsgesellschaft mbH;Binswangerstraße 2;7747;Jena;11.60599388;50.88060737;01.10.18;Normalladeeinrichtung;2;44.0;AC Steckdose Typ 2, AC Schuko;22.0;AC Steckdose Typ 2, AC Schuko;22.0;;0.0;;0.0
1274;Thüringer Energie AG;Markt;7768;Kahla;11.587972;50.802927;27.10.17;Normalladeeinrichtung;2;30.0;AC Steckdose Typ 2;22.0;AC Steckdose Typ 2;22.0;;0.0;;0.0
1275;Stadtwerke Energie Jena-Pößneck GmbH;Dorfstraße 105;7768;Seitenroda;11.61156;50.80418;01.01.14;Normalladeeinrichtung;2;44.0;AC Steckdose Typ 2, AC Schuko;22.0;AC Steckdose Typ 2, AC Schuko;22.0;;0.0;;0.0
1276;Stadtwerke Energie Jena-Pößneck GmbH;Schießplatz 1;7774;Camburg;11.70907411;51.05449524;01.07.18;Normalladeeinrichtung;2;44.0;AC Steckdose Typ 2, AC Schuko;22.0;AC Steckdose Typ 2, AC Schuko;22.0;;0.0;;0.0
1277;Stadtwerke Neustadt an der Orla GmbH;Mühlstraße;7806;Neustadt;11.744593;50.738882;02.04.18;Normalladeeinrichtung;2;22.0;AC Steckdose Typ 2, AC Kupplung Typ 2;22.0;AC Steckdose Typ 2, AC Kupplung Typ 2;22.0;;0.0;;0.0
1278;Thüringer Energie AG;Alte Neustädter Straße 4;7819;Triptis;11.86416;50.7365;27.10.17;Normalladeeinrichtung;2;30.0;AC Steckdose Typ 2;22.0;AC Steckdose Typ 2;22.0;;0.0;;0.0
1279;Thüringer Energie AG;Parkplatz Burgplatz;7929;Saalburg-Ebersdorf;11.728842;50.500392;26.10.17;Normalladeeinrichtung;2;30.0;AC Steckdose Typ 2;22.0;AC Steckdose Typ 2;22.0;;0.0;;0.0
1280;Energiewerke Zeulenroda GmbH;Aumaische Straße 31;7937;Zeulenroda;11.9776228;50.6521121;31.03.15;Normalladeeinrichtung;2;11.0;AC Steckdose Typ 2;11.0;AC Schuko;3.7;;0.0;;0.0
1281;Energieversorgung Greiz GmbH;Parkplatz Bruno Bergner Straße / Neustadtring;7973;Greiz;12.195;50.656111;18.12.14;Normalladeeinrichtung;2;30.0;AC Kupplung Typ 2;14.0;AC Steckdose Typ 2;3.7;;0.0;;0.0
1282;Autohaus Kühnert GmbH & Co. KG;Geraer Str. 4;7973;Greiz;12.154837;50.670911;23.09.18;Normalladeeinrichtung;2;22.0;AC Steckdose Typ 2;11.0;AC Steckdose Typ 2;11.0;;0.0;;0.0
1283;Zwickauer Energieversorgung GmbH;Bahnhofstraße 5;8056;;12.48658;50.71841;25.07.18;Normalladeeinrichtung;2;44.0;AC Steckdose Typ 2;22.0;AC Steckdose Typ 2;22.0;;0.0;;0.0
1284;Zwickauer Energieversorgung GmbH;Dr.-Friedrichs-Ring 9z;8056;;12.49561111;50.71475;01.11.18;Normalladeeinrichtung;2;44.0;AC Steckdose Typ 2;22.0;AC Steckdose Typ 2;22.0;;0.0;;0.0
1285;Zwickauer Energieversorgung GmbH;Moritzstraße;8056;Zwickau;12.49456859;50.72362536;24.06.14;Normalladeeinrichtung;2;44.0;AC Steckdose Typ 2;22.0;AC Steckdose Typ 2;22.0;;0.0;;0.0
1286;Zwickauer Energieversorgung GmbH;Kleine Biergasse;8056;Zwickau;12.500755;50.721965;01.11.17;Normalladeeinrichtung;2;44.0;AC Steckdose Typ 2;22.0;AC Steckdose Typ 2;22.0;;0.0;;0.0
1287;Zwickauer Energieversorgung GmbH;Crimmitschauer Straße 16zz;8056;Zwickau;12.48739;50.72312;22.07.18;Normalladeeinrichtung;2;44.0;AC Steckdose Typ 2;22.0;AC Steckdose Typ 2;22.0;;0.0;;0.0
1288;Zwickauer Energieversorgung GmbH;Äußere Schneeberger Straße 59z;8056;Zwickau;12.49941051;50.7074343;01.10.18;Schnellladeeinrichtung;2;84.0;DC Kupplung Combo, DC CHAdeMO;45.0;AC Kupplung Typ 2;38.0;;0.0;;0.0
1289;eins energie in sachsen GmbH & Co. KG;Georgenstr. 6;8056;Zwickau;12.49008;50.718932;01.05.15;Normalladeeinrichtung;2;44.0;AC Steckdose Typ 2, AC Schuko;22.0;AC Steckdose Typ 2, AC Schuko;22.0;;0.0;;0.0
1290;Zwickauer Energieversorgung GmbH;Audistraße 12;8058;Zwickau;12.48447;50.73317;16.09.14;Normalladeeinrichtung;1;11.0;AC Steckdose Typ 2;11.0;;0.0;;0.0;;0.0
1291;Zwickauer Energieversorgung GmbH;Audistraße 12;8058;Zwickau;12.48447;50.73317;14.09.14;Normalladeeinrichtung;1;11.0;AC Steckdose Typ 2;11.0;;0.0;;0.0;;0.0
1292;envia Mitteldeutsche Energie AG;Arno-Schmidt-Straße 28;8134;Wildenfels;15.592092;50.681519;26.09.17;Schnellladeeinrichtung;2;94.0;AC Kupplung Typ 2;50.0;DC Kupplung Combo, DC CHAdeMO;44.0;;0.0;;0.0
1293;Autohaus Strobel OHG;Werkstraße 7;8209;Auerbach;12.379935;50.521086;24.07.14;Normalladeeinrichtung;1;3.7;AC Steckdose Typ 2;3.7;;0.0;;0.0;;0.0
1294;envia Mitteldeutsche Energie AG;Nicolaistraße 21;8209;Auerbach/Vogtland;12.399298;50.508963;31.12.14;Normalladeeinrichtung;2;44.0;AC Steckdose Typ 2;22.0;AC Steckdose Typ 2;22.0;;0.0;;0.0
1295;envia Mitteldeutsche Energie AG;Mittlerer Ring 1;8233;Treuen;12.286318;50.549055;26.09.17;Schnellladeeinrichtung;2;94.0;AC Kupplung Typ 2;50.0;DC Kupplung Combo, DC CHAdeMO;44.0;;0.0;;0.0
1296;eins energie in sachsen GmbH & Co. KG;Am Märzenberg 1A;8359;Breitenbrunn;12.706977;50.471973;14.09.17;Normalladeeinrichtung;2;22.0;AC Steckdose Typ 2;11.0;AC Steckdose Typ 2;11.0;;0.0;;0.0
1297;Kaufland Vertrieb BETA GmbH & Co. KG;Seiferitzer Allee 1;8393;Meerane;12.45;50.84;04.10.17;Schnellladeeinrichtung;2;93.0;AC Kupplung Typ 2;43.0;DC Kupplung Combo, DC CHAdeMO;50.0;;0.0;;0.0
1298;Stadtwerke Reichenbach/Vogtland GmbH;Erich-Mühsam-Str. 2;8468;Reichenbach;12.315819;50.633325;04.10.18;Normalladeeinrichtung;2;22.0;AC Steckdose Typ 2;22.0;AC Steckdose Typ 2;22.0;;0.0;;0.0
1299;Stadtwerke Reichenbach/Vogtland GmbH;Zwickauer Str. 265;8468;Reichenbach;12.324074;50.638618;04.10.18;Normalladeeinrichtung;2;22.0;AC Steckdose Typ 2;22.0;AC Steckdose Typ 2;22.0;;0.0;;0.0
1300;Stadtwerke Reichenbach/Vogtland GmbH;Solbrigplatz 7;8468;Reichenbach;12.299592;50.623738;12.11.18;Normalladeeinrichtung;2;22.0;AC Steckdose Typ 2;22.0;AC Steckdose Typ 2;22.0;;0.0;;0.0
1301;Autohaus Strauß GmbH;Pausaer Str. 190;8525;Plauen;12.114587;50.52079;27.09.18;Normalladeeinrichtung;2;22.0;AC Steckdose Typ 2;11.0;AC Steckdose Typ 2;11.0;;0.0;;0.0
1302;Stadtwerke - Strom Plauen GmbH & Co. KG;Dürerstraße 28;8527;Plauen;12.130921;50.489273;26.10.18;Normalladeeinrichtung;2;44.0;AC Steckdose Typ 2;22.0;AC Steckdose Typ 2;22.0;;0.0;;0.0
1303;Stadtwerke OELSNITZ/V. GmbH;Plauensche Str. 161;8606;Oelsnitz/V.;12.16631;50.4321;10.10.18;Normalladeeinrichtung;2;44.0;AC Steckdose Typ 2;22.0;AC Steckdose Typ 2;22.0;;0.0;;0.0
1304;Stadtwerke OELSNITZ/V. GmbH;Fabrikstr. 1;8606;Oelsnitz/V.;12.17346;50.41197;10.10.18;Normalladeeinrichtung;2;44.0;AC Steckdose Typ 2;22.0;AC Steckdose Typ 2;22.0;;0.0;;0.0
1305;eins energie in sachsen GmbH & Co. KG;Moritzstr. 20;9111;Chemnitz;12.924229;50.831645;01.07.14;Normalladeeinrichtung;2;44.0;AC Steckdose Typ 2, AC Schuko;22.0;AC Steckdose Typ 2, AC Schuko;22.0;;0.0;;0.0
1306;eins energie in sachsen GmbH & Co. KG;Theaterstr. 7;9111;Chemnitz;12.920058;50.835223;01.12.14;Normalladeeinrichtung;1;88.0;AC Steckdose Typ 2, AC Schuko;22.0;;0.0;;0.0;;0.0
1307;eins energie in sachsen GmbH & Co. KG;Am Rathaus 1;9111;Chemnitz;12.92141;50.831822;01.03.15;Normalladeeinrichtung;1;44.0;AC Steckdose Typ 2, AC Schuko;22.0;;0.0;;0.0;;0.0
1308;eins energie in sachsen GmbH & Co. KG;Straße der Nationen 25;9111;Chemnitz;12.92504;50.83669;01.09.15;Normalladeeinrichtung;2;44.0;AC Steckdose Typ 2, AC Schuko;22.0;AC Steckdose Typ 2, AC Schuko;22.0;;0.0;;0.0
1309;eins energie in sachsen GmbH & Co. KG;Georgstr. 13;9111;Chemnitz;12.922595;50.841012;01.09.15;Normalladeeinrichtung;2;44.0;AC Steckdose Typ 2, AC Schuko;22.0;AC Steckdose Typ 2, AC Schuko;22.0;;0.0;;0.0
1310;eins energie in sachsen GmbH & Co. KG;Zöllnerplatz 1;9111;Chemnitz;12.925941;50.845162;01.02.16;Normalladeeinrichtung;2;44.0;AC Steckdose Typ 2, AC Schuko;22.0;AC Steckdose Typ 2, AC Schuko;22.0;;0.0;;0.0
1311;eins energie in sachsen GmbH & Co. KG;Straße der Nationen 140;9113;Chemnitz;12.933407;50.849506;01.10.13;Normalladeeinrichtung;2;44.0;AC Steckdose Typ 2, AC Schuko;22.0;AC Steckdose Typ 2, AC Schuko;22.0;;0.0;;0.0
1312;eins energie in sachsen GmbH & Co. KG;Schönherrstr. 8;9113;Chemnitz;12.921121;50.850518;18.07.17;Normalladeeinrichtung;2;44.0;AC Steckdose Typ 2, AC Schuko;22.0;AC Steckdose Typ 2, AC Schuko;22.0;;0.0;;0.0
1313;eins energie in sachsen GmbH & Co. KG;Further Str. 41;9113;Chemnitz;12.926375;50.849406;18.01.18;Normalladeeinrichtung;2;44.0;AC Steckdose Typ 2;22.0;AC Steckdose Typ 2;22.0;;0.0;;0.0
1314;envia Mitteldeutsche Energie AG;Chemnitztalstraße 13;9114;Chemnitz;12.92689;50.85787;31.12.14;Normalladeeinrichtung;2;44.0;AC Steckdose Typ 2;22.0;AC Steckdose Typ 2;22.0;;0.0;;0.0
1315;eins energie in sachsen GmbH & Co. KG;Blankenburgstr. 2;9114;Chemnitz;12.919291;50.854882;01.04.16;Normalladeeinrichtung;1;11.0;AC Steckdose Typ 2;11.0;;0.0;;0.0;;0.0
1316;eins energie in sachsen GmbH & Co. KG;Neefestr. 88;9116;Chemnitz;12.887048;50.819402;01.07.14;Normalladeeinrichtung;2;44.0;AC Steckdose Typ 2, AC Schuko;22.0;AC Steckdose Typ 2, AC Schuko;22.0;;0.0;;0.0
1317;eins energie in sachsen GmbH & Co. KG;Messeplatz 1;9116;Chemnitz;12.882904;50.817782;01.03.15;Normalladeeinrichtung;2;44.0;AC Steckdose Typ 2, AC Schuko;22.0;AC Steckdose Typ 2, AC Schuko;22.0;;0.0;;0.0
1318;eins energie in sachsen GmbH & Co. KG;Limbacher Str. 195;9116;Chemnitz;12.87376;50.832081;01.02.16;Normalladeeinrichtung;4;88.0;AC Steckdose Typ 2, AC Schuko;22.0;AC Steckdose Typ 2, AC Schuko;22.0;AC Steckdose Typ 2, AC Schuko;22.0;AC Steckdose Typ 2, AC Schuko;22.0
1319;Chemnitzer Siedlungsgemeinschaft eG;Alfons-Pech-Straße 21;9116;Chemnitz;12.88175;50.84152;01.02.18;Normalladeeinrichtung;2;44.0;AC Steckdose Typ 2, AC Schuko;22.0;AC Steckdose Typ 2, AC Schuko;22.0;;0.0;;0.0
1320;Chemnitzer Siedlungsgemeinschaft eG;Alfons-Pech-Straße 21;9116;Chemnitz;12.88175;50.84152;01.02.18;Normalladeeinrichtung;2;44.0;AC Steckdose Typ 2, AC Schuko;22.0;AC Steckdose Typ 2, AC Schuko;22.0;;0.0;;0.0
1321;HEOS Object GmbH & Co. KG;Carl-von-Bach-Straße 8a;9116;Chemnitz;12.8522;50.8027;31.05.18;Normalladeeinrichtung;4;44.0;AC Steckdose Typ 2, AC Schuko;22.0;AC Steckdose Typ 2, AC Schuko;22.0;AC Schuko;3.0;AC Schuko;3.0
1322;HEOS Object GmbH & Co. KG;Carl-von-Bach-Straße 8a;9116;Chemnitz;12.8522;50.8027;04.06.18;Schnellladeeinrichtung;2;93.0;DC Kupplung Combo, DC CHAdeMO;50.0;AC Kupplung Typ 2;43.0;;0.0;;0.0
1323;HEOS Object GmbH & Co. KG;Carl-von-Bach-Straße 8a;9116;Chemnitz;12.8522;50.8027;31.05.18;Normalladeeinrichtung;4;44.0;AC Steckdose Typ 2, AC Schuko;22.0;AC Steckdose Typ 2, AC Schuko;22.0;AC Schuko;3.0;AC Schuko;3.0
1324;EEG Curiestrasse GbR;Curiestrasse 3a;9117;Chemnitz;12.84341;50.81453;01.03.17;Normalladeeinrichtung;2;22.0;AC Steckdose Typ 2;11.0;AC Steckdose Typ 2;11.0;;0.0;;0.0
1325;eins energie in sachsen GmbH & Co. KG;Werner-Seelenbinder-Str. 11b;9120;Chemnitz;12.921763;50.805651;01.09.15;Normalladeeinrichtung;2;44.0;AC Steckdose Typ 2, AC Schuko;22.0;AC Steckdose Typ 2, AC Schuko;22.0;;0.0;;0.0
1326;eins energie in sachsen GmbH & Co. KG;Paul-Gruner-Str. 56;9120;Chemnitz;12.910055;50.809355;01.07.17;Normalladeeinrichtung;2;44.0;AC Steckdose Typ 2, AC Schuko;22.0;AC Steckdose Typ 2, AC Schuko;22.0;;0.0;;0.0
1327;eins energie in sachsen GmbH & Co. KG;Carl-Bobach-Str. 2-8;9120;Chemnitz;12.890133;50.805173;06.10.17;Normalladeeinrichtung;2;44.0;AC Steckdose Typ 2, AC Schuko;22.0;AC Steckdose Typ 2, AC Schuko;22.0;;0.0;;0.0
1328;Autohaus Melkus GmbH;F.-O.-Schimmel-Str. 31;9120;Chemnitz;12.923611;50.804918;08.11.18;Normalladeeinrichtung;2;44.0;AC Steckdose Typ 2;22.0;AC Steckdose Typ 2;22.0;;0.0;;0.0
1329;eins energie in sachsen GmbH & Co. KG;Alfred-Neubert-Str. 17;9123;Chemnitz;12.902672;50.786366;21.11.17;Normalladeeinrichtung;2;44.0;AC Steckdose Typ 2, AC Schuko;22.0;AC Steckdose Typ 2, AC Schuko;22.0;;0.0;;0.0
1330;Kaufland Vertrieb Berlin GmbH & Co. KG;Chemnitzer Straße 65;9123;Chemnitz;12.895356;50.783715;26.05.17;Schnellladeeinrichtung;2;93.0;AC Kupplung Typ 2;43.0;DC Kupplung Combo, DC CHAdeMO;50.0;;0.0;;0.0
1331;Chemnitzer Siedlungsgemeinschaft eG;Eislebener Straße 11;9126;Chemnitz;12.950367;50.809491;16.11.18;Normalladeeinrichtung;2;44.0;AC Steckdose Typ 2, AC Schuko;22.0;AC Steckdose Typ 2, AC Schuko;22.0;;0.0;;0.0
1332;eins energie in sachsen GmbH & Co. KG;Gellertstr. 25;9130;Chemnitz;12.943657;50.841546;01.04.16;Normalladeeinrichtung;4;88.0;AC Steckdose Typ 2, AC Schuko;22.0;AC Steckdose Typ 2, AC Schuko;22.0;AC Steckdose Typ 2, AC Schuko;22.0;AC Steckdose Typ 2, AC Schuko;22.0
1333;eins energie in sachsen GmbH & Co. KG;Hilbersdorfer Str. 1;9131;Chemnitz;12.936077;50.845823;18.01.18;Normalladeeinrichtung;2;44.0;AC Steckdose Typ 2;22.0;AC Steckdose Typ 2;22.0;;0.0;;0.0
1334;envia Mitteldeutsche Energie AG;Johann-Esche-Straße 26;9212;Limbach-Oberfrohna;12.786525;50.847091;31.12.14;Normalladeeinrichtung;2;44.0;AC Steckdose Typ 2;22.0;AC Steckdose Typ 2;22.0;;0.0;;0.0
1335;Danpower-Gruppe;Am Stadtpark 22;9212;Limbach-Oberfrohna;12.75948769;50.85222015;11.08.17;Normalladeeinrichtung;2;44.0;AC Steckdose Typ 2;22.0;AC Steckdose Typ 2;22.0;;0.0;;0.0
1336;Solarbetrieb Regina und Bernhard Herrmann (GbR);Zauberweg 13;9224;Chemnitz;12.79515;50.81638;01.05.16;Normalladeeinrichtung;1;22.0;AC Steckdose Typ 2;22.0;;0.0;;0.0;;0.0
1337;Autobahn Tank & Rast GmbH;Rabensteiner Wald Süd;9224;Chemnitz/Grüna;12.765012;50.821584;08.08.17;Schnellladeeinrichtung;2;250.0;DC Kupplung Combo, DC CHAdeMO;50.0;AC Kupplung Typ 2;42.0;;0.0;;0.0
1338;Autobahn Tank & Rast GmbH;Auerswalder Blick Nord;9244;Lichtenau;12.938842;50.892978;21.04.17;Schnellladeeinrichtung;2;250.0;DC Kupplung Combo, DC CHAdeMO;50.0;AC Kupplung Typ 2;42.0;;0.0;;0.0
1339;Autohaus Nobis e.K.;Auer Str.3;9366;Stollberg;12.761841;50.711635;15.05.14;Normalladeeinrichtung;1;3.7;AC Steckdose Typ 2;3.7;;0.0;;0.0;;0.0
1340;envia Mitteldeutsche Energie AG;Neumarkt 17;9405;Zschopau;13.069798;50.747848;31.12.14;Normalladeeinrichtung;2;44.0;AC Steckdose Typ 2;22.0;AC Steckdose Typ 2;22.0;;0.0;;0.0
1341;Bürger Energie Drebach eG;Ernst-Grohmann-Straße (Festplatz);9423;Gelenau;12.980636;50.713253;07.11.18;Normalladeeinrichtung;1;22.0;AC Steckdose Typ 2;22.0;;0.0;;0.0;;0.0
1342;Schmutzler Immobilien GbR;Markt 3;9427;Ehrenfriedersdorf;12.970277;50.645833;02.11.16;Normalladeeinrichtung;1;22.0;AC Steckdose Typ 2;22.0;;0.0;;0.0;;0.0
1343;eins energie in sachsen GmbH & Co. KG;Neumarkt 15;9427;Ehrenfriedersdorf;12.967971;50.64478;13.06.17;Normalladeeinrichtung;2;44.0;AC Steckdose Typ 2, AC Schuko;22.0;AC Steckdose Typ 2, AC Schuko;22.0;;0.0;;0.0
1344;Bürger Energie Drebach eG;Bahnhofstraße 45B;9430;Drebach;13.056297;50.702934;06.04.16;Normalladeeinrichtung;1;22.0;AC Steckdose Typ 2;22.0;;0.0;;0.0;;0.0
1345;Stadtwerke Annaberg Buchholz Energie AG;Markt 4;9456;Annaberg-Buchholz;13.002455;50.579947;31.03.17;Normalladeeinrichtung;1;22.0;AC Steckdose Typ 2;22.0;;0.0;;0.0;;0.0
1346;Stadtwerke Annaberg Buchholz Energie AG;Robert-Schumann-Straße 1;9456;Annaberg-Buchholz;13.014485;50.58601;10.06.17;Normalladeeinrichtung;2;44.0;AC Steckdose Typ 2;22.0;AC Steckdose Typ 2;22.0;;0.0;;0.0
1347;Stadtwerke Annaberg Buchholz Energie AG;Lousie-Otto-Peters-Straße 1;9456;Annaberg-Buchholz;12.982081;50.579405;15.08.18;Normalladeeinrichtung;2;44.0;AC Steckdose Typ 2;22.0;AC Steckdose Typ 2;22.0;;0.0;;0.0
1348;envia Mitteldeutsche Energie AG;Karlsbader Str. 3;9484;Oberwiesenthal;12.96897;50.41929;31.12.14;Normalladeeinrichtung;2;44.0;AC Steckdose Typ 2;22.0;AC Steckdose Typ 2;22.0;;0.0;;0.0
1349;Bürger Energie Drebach eG;Am Kurpark 1;9488;Thermalbad;13.045588;50.619953;14.11.16;Normalladeeinrichtung;1;22.0;AC Steckdose Typ 2;22.0;;0.0;;0.0;;0.0
1350;Energieversorgung Marienberg GmbH;Walther-Mehnert-Straße 3;9496;Marienberg;13.1592;50.652707;30.11.16;Normalladeeinrichtung;2;44.0;AC Steckdose Typ 2;22.0;AC Steckdose Typ 2;22.0;;0.0;;0.0
1351;Stadtwerke Olbernhau GmbH;In der Hütte 8a;9526;Olbernhau;13.3677;50.6492;10.07.18;Normalladeeinrichtung;2;33.0;AC Steckdose Typ 2;22.0;AC Steckdose Typ 2;22.0;;0.0;;0.0
1352;Solar-Technik-Enzmann Heike und Holger Enzmann GbR;Waldstraße 6 A;9579;Grünhainichen;13.14947;50.764998;25.02.16;Normalladeeinrichtung;1;22.0;AC Kupplung Typ 2;22.0;;0.0;;0.0;;0.0
1353;Stadtwerke Freiberg AG;Am Bahnhof 3;9599;Freiberg;13.436;50.908;20.07.16;Normalladeeinrichtung;2;44.0;AC Steckdose Typ 2;22.0;AC Steckdose Typ 2;22.0;;0.0;;0.0
1354;Stadtwerke Freiberg AG;Fischerstraße 17;9599;Freiberg;13.328881;50.925379;21.09.16;Normalladeeinrichtung;1;22.0;AC Steckdose Typ 2;22.0;;0.0;;0.0;;0.0
1355;Gamma Warenhandel GmbH & Co. KG;Sonnenstraße 7;9648;Mittweida;12.965836;50.994903;13.09.18;Schnellladeeinrichtung;2;93.0;AC Kupplung Typ 2;43.0;DC Kupplung Combo, DC CHAdeMO;50.0;;0.0;;0.0
1356;envia Mitteldeutsche Energie AG;Markt 15;9669;Frankenberg;13.032813;50.91211;31.12.14;Normalladeeinrichtung;2;44.0;AC Steckdose Typ 2;22.0;AC Steckdose Typ 2;22.0;;0.0;;0.0
1357;innogy SE;Boyenstr. 23;10115;Berlin;13.368842;52.535955;14.07.09;Normalladeeinrichtung;2;44.0;AC Steckdose Typ 2;22.0;AC Steckdose Typ 2;22.0;;0.0;;0.0
1358;innogy SE;Anklamer Str. 8;10115;Berlin;13.395824;52.534398;14.07.09;Normalladeeinrichtung;2;44.0;AC Steckdose Typ 2;22.0;AC Steckdose Typ 2;22.0;;0.0;;0.0
1359;innogy SE;Torstraße 165;10115;Berlin;13.395841;52.529125;14.04.10;Normalladeeinrichtung;2;44.0;AC Steckdose Typ 2;22.0;AC Steckdose Typ 2;22.0;;0.0;;0.0
1360;innogy SE;Gartenstraße 13;10115;Berlin;13.39135;52.530483;14.04.10;Normalladeeinrichtung;2;44.0;AC Steckdose Typ 2;22.0;AC Steckdose Typ 2;22.0;;0.0;;0.0
1361;Allego GmbH;Habersaathstr. 34;10115;Berlin;13.37762;52.531847;21.12.16;Normalladeeinrichtung;2;22.0;AC Steckdose Typ 2;11.0;AC Steckdose Typ 2;11.0;;0.0;;0.0
1362;Allego GmbH;Kieler Str. 5;10115;Berlin;13.370317;52.5343;26.01.17;Normalladeeinrichtung;2;22.0;AC Steckdose Typ 2;11.0;AC Steckdose Typ 2;11.0;;0.0;;0.0
1363;Allego GmbH;Borsigstr. 1;10115;Berlin;13.391272;52.528091;13.03.17;Normalladeeinrichtung;2;22.0;AC Steckdose Typ 2;11.0;AC Steckdose Typ 2;11.0;;0.0;;0.0
1364;Allego GmbH;Anklamer Str. 12;10115;Berlin;13.397123;52.534702;21.03.17;Normalladeeinrichtung;2;22.0;AC Steckdose Typ 2;11.0;AC Steckdose Typ 2;11.0;;0.0;;0.0
1365;innogy SE;Schumannstr. 6;10117;Berlin;13.380581;52.523719;14.07.09;Normalladeeinrichtung;2;44.0;AC Steckdose Typ 2;22.0;AC Steckdose Typ 2;22.0;;0.0;;0.0
1366;innogy SE;Planckstr. 4;10117;Berlin;13.390248;52.51897;17.07.09;Normalladeeinrichtung;2;44.0;AC Steckdose Typ 2;22.0;AC Steckdose Typ 2;22.0;;0.0;;0.0
1367;innogy SE;Luisenstr. 31;10117;Berlin;13.38025;52.51983;17.07.09;Normalladeeinrichtung;2;44.0;AC Steckdose Typ 2;22.0;AC Steckdose Typ 2;22.0;;0.0;;0.0
1368;innogy SE;Behrensstraße 28;10117;Berlin;13.389922;52.515846;14.04.10;Normalladeeinrichtung;2;44.0;AC Steckdose Typ 2;22.0;AC Steckdose Typ 2;22.0;;0.0;;0.0
1369;innogy SE;Krausenstraße 72;10117;Berlin;13.389543;52.509467;13.07.10;Normalladeeinrichtung;2;44.0;AC Steckdose Typ 2;22.0;AC Steckdose Typ 2;22.0;;0.0;;0.0
1370;innogy SE;Neue Jüdenstraße 1;10117;Berlin;13.41046;52.51579;13.09.10;Normalladeeinrichtung;2;44.0;AC Steckdose Typ 2;22.0;AC Steckdose Typ 2;22.0;;0.0;;0.0
1371;innogy SE;Reinhardtstraße 32;10117;Berlin;13.380966;52.522819;13.03.12;Normalladeeinrichtung;2;44.0;AC Steckdose Typ 2;22.0;AC Steckdose Typ 2;22.0;;0.0;;0.0
1372;innogy SE;Platz vor dem Neuen Tor;10117;Berlin;13.378846;52.528677;07.04.16;Normalladeeinrichtung;2;44.0;AC Steckdose Typ 2;22.0;AC Steckdose Typ 2;22.0;;0.0;;0.0
1373;Allego GmbH;Voßstr. 24;10117;Berlin;13.378211;52.510907;18.05.16;Normalladeeinrichtung;2;22.0;AC Steckdose Typ 2;11.0;AC Steckdose Typ 2;11.0;;0.0;;0.0
1374;Allego GmbH;Leipziger Str. 59 in Jerusalemer Str .;10117;Berlin;13.396763;52.511309;12.12.16;Normalladeeinrichtung;2;22.0;AC Steckdose Typ 2;11.0;AC Steckdose Typ 2;11.0;;0.0;;0.0
1375;Allego GmbH;Taubenstr. 14;10117;Berlin;13.390118;52.512969;19.01.17;Normalladeeinrichtung;2;22.0;AC Steckdose Typ 2;11.0;AC Steckdose Typ 2;11.0;;0.0;;0.0
1376;Allego GmbH;Mauerstr. 32;10117;Berlin;13.38431;52.515197;27.02.17;Normalladeeinrichtung;2;22.0;AC Steckdose Typ 2;11.0;AC Steckdose Typ 2;11.0;;0.0;;0.0
1377;Allego GmbH;Dorotheenstr. 63;10117;Berlin;13.387711;52.518608;12.07.17;Normalladeeinrichtung;2;22.0;AC Steckdose Typ 2;11.0;AC Steckdose Typ 2;11.0;;0.0;;0.0
1378;Allego GmbH;Jägerstr. 61;10117;Berlin;13.390051;52.513886;17.05.17;Normalladeeinrichtung;2;22.0;AC Steckdose Typ 2;11.0;AC Steckdose Typ 2;11.0;;0.0;;0.0
1379;Allego GmbH;Neustädtische Kirchstr. 8;10117;Berlin;13.385222;52.519615;27.04.17;Normalladeeinrichtung;2;22.0;AC Steckdose Typ 2;11.0;AC Steckdose Typ 2;11.0;;0.0;;0.0
1380;APCOA PARKING Deutschland GmbH;Unter den Linden 77;10117;Berlin;13.3802426;52.5160186;01.12.16;Normalladeeinrichtung;1;11.0;AC Steckdose Typ 2;11.0;;0.0;;0.0;;0.0
1381;innogy SE;Veteranenstraße 25;10119;Berlin;13.403185;52.53382;16.07.10;Normalladeeinrichtung;2;44.0;AC Steckdose Typ 2;22.0;AC Steckdose Typ 2;22.0;;0.0;;0.0
1382;innogy SE;Jüdenstrasse 1;10178;Berlin;13.409136;52.518744;14.07.09;Normalladeeinrichtung;2;44.0;AC Steckdose Typ 2;22.0;AC Steckdose Typ 2;22.0;;0.0;;0.0
1383;innogy SE;Mollstraße 4;10178;Berlin;13.421389;52.524167;15.04.10;Normalladeeinrichtung;2;44.0;AC Steckdose Typ 2;22.0;AC Steckdose Typ 2;22.0;;0.0;;0.0
1384;Allego GmbH;Spandauer Str. 2;10178;Berlin;13.403944;52.520978;14.04.16;Normalladeeinrichtung;2;22.0;AC Steckdose Typ 2;11.0;AC Steckdose Typ 2;11.0;;0.0;;0.0
1385;Allego GmbH;Alexanderstr. 4;10178;Berlin;13.413833;52.522747;01.12.16;Schnellladeeinrichtung;2;93.0;DC Kupplung Combo, DC CHAdeMO;50.0;AC Kupplung Typ 2;43.0;;0.0;;0.0
1386;Allego GmbH;Karl-Liebknecht-Str. 29;10178;Berlin;13.41251;52.524215;27.04.17;Normalladeeinrichtung;2;22.0;AC Steckdose Typ 2;11.0;AC Steckdose Typ 2;11.0;;0.0;;0.0
1387;innogy SE;Voltairestraße 2;10179;Berlin;13.417261;52.517707;13.04.10;Normalladeeinrichtung;2;44.0;AC Steckdose Typ 2;22.0;AC Steckdose Typ 2;22.0;;0.0;;0.0
1388;innogy SE;Alte Jakobstraße 76;10179;Berlin;13.409065;52.510383;14.04.10;Normalladeeinrichtung;2;44.0;AC Steckdose Typ 2;22.0;AC Steckdose Typ 2;22.0;;0.0;;0.0
1389;Allego GmbH;Am Köllnischen Park 3;10179;Berlin;13.415578;52.513388;14.10.16;Normalladeeinrichtung;2;22.0;AC Steckdose Typ 2;11.0;AC Steckdose Typ 2;11.0;;0.0;;0.0
1390;Allego GmbH;Heinrich-Heine-Str. 13;10179;Berlin;13.414446;52.508218;12.12.16;Normalladeeinrichtung;2;22.0;AC Steckdose Typ 2;11.0;AC Steckdose Typ 2;11.0;;0.0;;0.0
1391;APCOA PARKING Deutschland GmbH;Gruner Straße 20;10179;Berlin;13.4147948;52.5199026;01.12.16;Normalladeeinrichtung;4;11.0;AC Steckdose Typ 2;11.0;AC Steckdose Typ 2;11.0;AC Steckdose Typ 2;11.0;AC Steckdose Typ 2;11.0
1392;Allego GmbH;Andreasstr. 47;10243;Berlin;13.432585;52.517177;06.07.16;Normalladeeinrichtung;2;22.0;AC Steckdose Typ 2;11.0;AC Steckdose Typ 2;11.0;;0.0;;0.0
1393;Allego GmbH;Friedrichsberger Str. 24;10243;Berlin;13.434841;52.521066;06.10.16;Normalladeeinrichtung;2;22.0;AC Steckdose Typ 2;11.0;AC Steckdose Typ 2;11.0;;0.0;;0.0
1394;Allego GmbH;Koppenstr. 46;10243;Berlin;13.437725;52.520102;10.10.15;Normalladeeinrichtung;2;22.0;AC Steckdose Typ 2;11.0;AC Steckdose Typ 2;11.0;;0.0;;0.0
1395;Allego GmbH;Kadinerstr. 1;10243;Berlin;13.450787;52.515183;06.10.15;Normalladeeinrichtung;2;22.0;AC Steckdose Typ 2;11.0;AC Steckdose Typ 2;11.0;;0.0;;0.0
1396;Allego GmbH;Marchlewskistr. 107;10243;Berlin;13.449488;52.507889;06.10.15;Normalladeeinrichtung;2;22.0;AC Steckdose Typ 2;11.0;AC Steckdose Typ 2;11.0;;0.0;;0.0
1397;Allego GmbH;Grünberger Str. 4;10243;Berlin;13.448263;52.51305;30.03.17;Normalladeeinrichtung;2;22.0;AC Steckdose Typ 2;11.0;AC Steckdose Typ 2;11.0;;0.0;;0.0
1398;Allego GmbH;Wühlischstr. 54;10245;Berlin;13.466975;52.507268;18.08.16;Normalladeeinrichtung;2;22.0;AC Steckdose Typ 2;11.0;AC Steckdose Typ 2;11.0;;0.0;;0.0
1399;Allego GmbH;Glasbläserallee 4;10245;Berlin;13.46754;52.496249;30.10.17;Normalladeeinrichtung;2;22.0;AC Steckdose Typ 2;11.0;AC Steckdose Typ 2;11.0;;0.0;;0.0
1400;Allego GmbH;Markgrafendamm 6;10245;Berlin;13.465531;52.498498;24.07.17;Normalladeeinrichtung;1;11.0;AC Steckdose Typ 2;11.0;;0.0;;0.0;;0.0
1401;Allego GmbH;Rochowstr. 13;10245;Berlin;13.458532;52.500352;30.10.17;Normalladeeinrichtung;1;11.0;AC Steckdose Typ 2;11.0;;0.0;;0.0;;0.0
1402;Allego GmbH;Mainzer Str. 1;10247;Berlin;13.463083;52.514612;17.02.16;Normalladeeinrichtung;2;22.0;AC Steckdose Typ 2;11.0;AC Steckdose Typ 2;11.0;;0.0;;0.0
1403;Allego GmbH;Scharnweberstr. 1 A;10247;Berlin;13.474964;52.511975;10.09.15;Normalladeeinrichtung;2;22.0;AC Steckdose Typ 2;11.0;AC Steckdose Typ 2;11.0;;0.0;;0.0
1404;Allego GmbH;Gryphiusstr. 17;10247;Berlin;13.465006;52.510496;05.01.18;Normalladeeinrichtung;2;22.0;AC Steckdose Typ 2;11.0;AC Steckdose Typ 2;11.0;;0.0;;0.0
1405;innogy SE;Hermann-Blankenstein-Straße 40;10249;Berlin;13.466111;52.523056;23.05.12;Normalladeeinrichtung;2;44.0;AC Steckdose Typ 2;22.0;AC Steckdose Typ 2;22.0;;0.0;;0.0
1406;Allego GmbH;Kochhannstr. 9;10249;Berlin;13.448454;52.524128;24.10.15;Normalladeeinrichtung;2;22.0;AC Steckdose Typ 2;11.0;AC Steckdose Typ 2;11.0;;0.0;;0.0
1407;Allego GmbH;Büschingstr. 1;10249;Berlin;13.428995;52.525626;14.11.15;Normalladeeinrichtung;2;22.0;AC Steckdose Typ 2;11.0;AC Steckdose Typ 2;11.0;;0.0;;0.0
1408;innogy SE;Einbecker Straße 119;10315;Berlin;13.513615;52.505603;29.09.11;Normalladeeinrichtung;2;44.0;AC Steckdose Typ 2;22.0;AC Steckdose Typ 2;22.0;;0.0;;0.0
1409;Allego GmbH;Rhinstr. 163;10315;Berlin;13.51782;52.534426;14.03.16;Normalladeeinrichtung;2;22.0;AC Steckdose Typ 2;11.0;AC Steckdose Typ 2;11.0;;0.0;;0.0
1410;innogy SE;Stadthausstraße;10317;Berlin;13.481084;52.502977;29.09.11;Normalladeeinrichtung;2;44.0;AC Steckdose Typ 2;22.0;AC Steckdose Typ 2;22.0;;0.0;;0.0
1411;Allego GmbH;Weitlingstr. 52;10317;Berlin;13.496068;52.504825;26.08.16;Normalladeeinrichtung;2;22.0;AC Steckdose Typ 2;11.0;AC Steckdose Typ 2;11.0;;0.0;;0.0
1412;Allego GmbH;Nöldnerstr. 9;10317;Berlin;13.4779;52.501809;23.12.15;Normalladeeinrichtung;2;22.0;AC Steckdose Typ 2;11.0;AC Steckdose Typ 2;11.0;;0.0;;0.0
1413;innogy SE;Stolzenfelsstraße 1;10318;Berlin;13.526469;52.481183;28.09.12;Normalladeeinrichtung;2;44.0;AC Steckdose Typ 2;22.0;AC Steckdose Typ 2;22.0;;0.0;;0.0
1414;Allego GmbH;Römerweg 38;10318;Berlin;13.52497;52.491855;26.06.17;Normalladeeinrichtung;2;22.0;AC Steckdose Typ 2;11.0;AC Steckdose Typ 2;11.0;;0.0;;0.0
1415;Allego GmbH;Sewanstr. ggü. 43;10319;Berlin;13.502235;52.498223;14.04.16;Normalladeeinrichtung;2;22.0;AC Steckdose Typ 2;11.0;AC Steckdose Typ 2;11.0;;0.0;;0.0
1416;innogy SE;Frankfurter Allee 248;10365;Berlin;13.4975;52.511667;27.09.11;Normalladeeinrichtung;2;44.0;AC Steckdose Typ 2;22.0;AC Steckdose Typ 2;22.0;;0.0;;0.0
1417;innogy SE;Normannenstr. 1;10367;Berlin;13.479989;52.516139;13.03.12;Normalladeeinrichtung;2;44.0;AC Steckdose Typ 2;22.0;AC Steckdose Typ 2;22.0;;0.0;;0.0
1418;Allego GmbH;Josef-Orlopp-Str. 4;10367;Berlin;13.480103;52.523041;11.02.16;Normalladeeinrichtung;2;22.0;AC Steckdose Typ 2;11.0;AC Steckdose Typ 2;11.0;;0.0;;0.0
1419;innogy SE;Landsberger Allee 174;10369;Berlin;13.468979;52.531126;23.12.11;Normalladeeinrichtung;2;44.0;AC Steckdose Typ 2;22.0;AC Steckdose Typ 2;22.0;;0.0;;0.0
1420;Allego GmbH;Chodowiekistr. ggü.1;10405;Berlin;13.431859;52.535618;12.10.16;Normalladeeinrichtung;2;22.0;AC Steckdose Typ 2;11.0;AC Steckdose Typ 2;11.0;;0.0;;0.0
1421;Allego GmbH;Immanuelkirchstr. 14;10405;Berlin;13.425677;52.53194;05.01.16;Normalladeeinrichtung;2;22.0;AC Steckdose Typ 2;11.0;AC Steckdose Typ 2;11.0;;0.0;;0.0
1422;Allego GmbH;Kollwitzstr. 35;10405;Berlin;13.414964;52.5337;22.12.15;Normalladeeinrichtung;2;22.0;AC Steckdose Typ 2;11.0;AC Steckdose Typ 2;11.0;;0.0;;0.0
1423;Allego GmbH;John-Schehr-Str.66;10407;Berlin;13.442525;52.533827;23.12.15;Normalladeeinrichtung;2;22.0;AC Steckdose Typ 2;11.0;AC Steckdose Typ 2;11.0;;0.0;;0.0
1424;Allego GmbH;Oderbruchstr. 13;10407;Berlin;13.461713;52.530883;15.02.17;Normalladeeinrichtung;1;3.7;AC Steckdose Typ 2;3.7;;0.0;;0.0;;0.0
1425;Allego GmbH;Naugarder Str. 1;10409;Berlin;13.438961;52.542085;14.11.15;Normalladeeinrichtung;2;22.0;AC Steckdose Typ 2;11.0;AC Steckdose Typ 2;11.0;;0.0;;0.0
1426;Allego GmbH;Hosemannstr. 9;10409;Berlin;13.438632;52.547015;06.06.17;Normalladeeinrichtung;2;22.0;AC Steckdose Typ 2;11.0;AC Steckdose Typ 2;11.0;;0.0;;0.0
1427;innogy SE;Griebenowstraße 5;10435;Berlin;13.405008;52.535712;17.07.09;Normalladeeinrichtung;2;44.0;AC Steckdose Typ 2;22.0;AC Steckdose Typ 2;22.0;;0.0;;0.0
1428;Allego GmbH;Swinemünder Str. 126;10435;Berlin;13.403331;52.535344;19.12.16;Normalladeeinrichtung;2;22.0;AC Steckdose Typ 2;11.0;AC Steckdose Typ 2;11.0;;0.0;;0.0
1429;Allego GmbH;Oderberger Str. 22;10435;Berlin;13.406896;52.539697;31.03.17;Normalladeeinrichtung;2;22.0;AC Steckdose Typ 2;11.0;AC Steckdose Typ 2;11.0;;0.0;;0.0
1430;Allego GmbH;Raumerstr. ggü. 6;10437;Berlin;13.417228;52.543283;22.12.15;Normalladeeinrichtung;2;22.0;AC Steckdose Typ 2;11.0;AC Steckdose Typ 2;11.0;;0.0;;0.0
1431;Allego GmbH;Gneiststr. 10;10437;Berlin;13.415361;52.544174;29.08.17;Normalladeeinrichtung;2;22.0;AC Steckdose Typ 2;11.0;AC Steckdose Typ 2;11.0;;0.0;;0.0
1432;Allego GmbH;Kopenhagener Str. 77;10437;Berlin;13.412197;52.548538;27.09.17;Normalladeeinrichtung;2;22.0;AC Steckdose Typ 2;11.0;AC Steckdose Typ 2;11.0;;0.0;;0.0
1433;Allego GmbH;Wichertstr. 34;10439;Berlin;13.424988;52.546751;13.11.15;Normalladeeinrichtung;2;22.0;AC Steckdose Typ 2;11.0;AC Steckdose Typ 2;11.0;;0.0;;0.0
1434;Allego GmbH;Krügerstr. 25;10439;Berlin;13.429248;52.55057;14.11.15;Normalladeeinrichtung;2;22.0;AC Steckdose Typ 2;11.0;AC Steckdose Typ 2;11.0;;0.0;;0.0
1435;Allego GmbH;Paul-Robeson-Str. 50;10439;Berlin;13.413783;52.552103;14.11.15;Normalladeeinrichtung;2;22.0;AC Steckdose Typ 2;11.0;AC Steckdose Typ 2;11.0;;0.0;;0.0
1436;Allego GmbH;Schönfließer Str. 9;10439;Berlin;13.408519;52.553752;14.11.15;Normalladeeinrichtung;2;22.0;AC Steckdose Typ 2;11.0;AC Steckdose Typ 2;11.0;;0.0;;0.0
1437;APCOA PARKING Deutschland GmbH;Schönhauser Allee 79-80;10439;Berlin;13.4157815;52.5494582;01.12.16;Normalladeeinrichtung;2;11.0;AC Steckdose Typ 2;11.0;AC Steckdose Typ 2;11.0;;0.0;;0.0
1438;Allego GmbH;Birkenstr. 33;10551;Berlin;13.341048;52.532441;07.04.17;Normalladeeinrichtung;2;22.0;AC Steckdose Typ 2;11.0;AC Steckdose Typ 2;11.0;;0.0;;0.0
1439;Allego GmbH;Erasmusstr. 20;10553;Berlin;13.32721;52.526111;07.04.17;Normalladeeinrichtung;2;22.0;AC Steckdose Typ 2;11.0;AC Steckdose Typ 2;11.0;;0.0;;0.0
1440;Allego GmbH;Alt-Moabit 72;10555;Berlin;13.332421;52.524128;12.12.16;Normalladeeinrichtung;2;22.0;AC Steckdose Typ 2;11.0;AC Steckdose Typ 2;11.0;;0.0;;0.0
1441;innogy SE;Friedrich-List-Ufer;10557;Berlin;13.370633;52.525956;17.07.09;Normalladeeinrichtung;2;44.0;AC Steckdose Typ 2;22.0;AC Steckdose Typ 2;22.0;;0.0;;0.0
1442;innogy SE;Alt-Moabit 5;10557;Berlin;13.362537;52.523223;13.04.10;Normalladeeinrichtung;2;44.0;AC Steckdose Typ 2;22.0;AC Steckdose Typ 2;22.0;;0.0;;0.0
1443;innogy SE;Flensburger Straße 1;10557;Berlin;13.345655;52.520314;13.04.10;Normalladeeinrichtung;2;44.0;AC Steckdose Typ 2;22.0;AC Steckdose Typ 2;22.0;;0.0;;0.0
1444;Allego GmbH;Clara-Jaschke-Str. 88;10557;Berlin;13.366234;52.523427;10.01.17;Normalladeeinrichtung;2;22.0;AC Steckdose Typ 2;11.0;AC Steckdose Typ 2;11.0;;0.0;;0.0
1445;innogy SE;Otto-Suhr-Allee 84;10585;Berlin;13.309385;52.516632;20.05.09;Normalladeeinrichtung;2;44.0;AC Steckdose Typ 2;22.0;AC Steckdose Typ 2;22.0;;0.0;;0.0
1446;innogy SE;Krumme Straße 73;10585;Berlin;13.309261;52.5121;12.06.09;Normalladeeinrichtung;2;44.0;AC Steckdose Typ 2;22.0;AC Steckdose Typ 2;22.0;;0.0;;0.0
1447;Allego GmbH;Krumme Str. 85;10585;Berlin;13.309838;52.513972;04.10.16;Normalladeeinrichtung;2;22.0;AC Steckdose Typ 2;11.0;AC Steckdose Typ 2;11.0;;0.0;;0.0
1448;innogy SE;Marchstraße 9;10587;Berlin;13.322778;52.513661;20.05.09;Normalladeeinrichtung;2;44.0;AC Steckdose Typ 2;22.0;AC Steckdose Typ 2;22.0;;0.0;;0.0
1449;Allego GmbH;Wilmersdorfer Str. 8;10587;Berlin;13.304447;52.517207;05.07.16;Normalladeeinrichtung;2;22.0;AC Steckdose Typ 2;11.0;AC Steckdose Typ 2;11.0;;0.0;;0.0
1450;Allego GmbH;Charlottenburger Ufer 1;10587;Berlin;13.300289;52.52122;05.12.15;Normalladeeinrichtung;2;22.0;AC Steckdose Typ 2;11.0;AC Steckdose Typ 2;11.0;;0.0;;0.0
1451;Allego GmbH;Osnabrücker Str. 26;10589;Berlin;13.301083;52.525864;07.11.15;Normalladeeinrichtung;2;22.0;AC Steckdose Typ 2;11.0;AC Steckdose Typ 2;11.0;;0.0;;0.0
1452;innogy SE;Savignyplatz (Nord) 6;10623;Berlin;13.322375;52.506539;16.02.10;Normalladeeinrichtung;2;44.0;AC Steckdose Typ 2;22.0;AC Steckdose Typ 2;22.0;;0.0;;0.0
1453;innogy SE;Savignyplatz (Süd) 2;10623;Berlin;13.322816;52.50553;20.05.09;Normalladeeinrichtung;2;44.0;AC Steckdose Typ 2;22.0;AC Steckdose Typ 2;22.0;;0.0;;0.0
1454;innogy SE;Straße des 17. Juni 115;10623;Berlin;13.329802;52.513015;20.05.09;Normalladeeinrichtung;2;44.0;AC Steckdose Typ 2;22.0;AC Steckdose Typ 2;22.0;;0.0;;0.0
1455;innogy SE;Fasanenstr. 12;10623;Berlin;13.327709;52.505217;20.11.14;Normalladeeinrichtung;2;44.0;AC Steckdose Typ 2;22.0;AC Steckdose Typ 2;22.0;;0.0;;0.0
1456;Allego GmbH;Fasanenstrstr. 88;10623;Berlin;13.330307;52.510533;22.12.15;Normalladeeinrichtung;2;22.0;AC Steckdose Typ 2;11.0;AC Steckdose Typ 2;11.0;;0.0;;0.0
1457;Allego GmbH;Schillerstr. 29;10625;Berlin;13.309893;52.510341;05.07.16;Normalladeeinrichtung;2;22.0;AC Steckdose Typ 2;11.0;AC Steckdose Typ 2;11.0;;0.0;;0.0
1458;Allego GmbH;Schlüterstr. 62;10625;Berlin;13.317669;52.505876;07.11.15;Normalladeeinrichtung;2;22.0;AC Steckdose Typ 2;11.0;AC Steckdose Typ 2;11.0;;0.0;;0.0
1459;innogy SE;Kantstraße 111 a;10627;Berlin;13.306286;52.506822;12.06.09;Normalladeeinrichtung;2;44.0;AC Steckdose Typ 2;22.0;AC Steckdose Typ 2;22.0;;0.0;;0.0
1460;innogy SE;Windscheid Str. 20;10627;Berlin;13.299993;52.505012;12.06.09;Normalladeeinrichtung;2;44.0;AC Steckdose Typ 2;22.0;AC Steckdose Typ 2;22.0;;0.0;;0.0
1461;Allego GmbH;Suarezstr. 1;10627;Berlin;13.296954;52.510481;23.12.15;Normalladeeinrichtung;2;22.0;AC Steckdose Typ 2;11.0;AC Steckdose Typ 2;11.0;;0.0;;0.0
1462;Allego GmbH;Pestalozzistr. 44;10627;Berlin;13.414964;52.5337;22.12.15;Normalladeeinrichtung;2;22.0;AC Steckdose Typ 2;11.0;AC Steckdose Typ 2;11.0;;0.0;;0.0
1463;Allego GmbH;Leibnitzstr. 59;10629;Berlin;13.313239;52.502757;18.08.16;Normalladeeinrichtung;2;22.0;AC Steckdose Typ 2;11.0;AC Steckdose Typ 2;11.0;;0.0;;0.0
1464;Allego GmbH;Dahlmannstr. 1a;10629;Berlin;13.30371;52.503442;25.02.16;Normalladeeinrichtung;2;22.0;AC Steckdose Typ 2;11.0;AC Steckdose Typ 2;11.0;;0.0;;0.0
1465;Allego GmbH;Waitzstr.7;10629;Berlin;13.305567;52.501687;20.11.15;Normalladeeinrichtung;2;22.0;AC Steckdose Typ 2;11.0;AC Steckdose Typ 2;11.0;;0.0;;0.0
1466;innogy SE;Schlüterstraße 46;10707;Berlin;13.3168;52.500883;20.05.09;Normalladeeinrichtung;2;44.0;AC Steckdose Typ 2;22.0;AC Steckdose Typ 2;22.0;;0.0;;0.0
1467;innogy SE;Pommersche Straße 9;10707;Berlin;13.315086;52.493249;20.05.09;Normalladeeinrichtung;2;44.0;AC Steckdose Typ 2;22.0;AC Steckdose Typ 2;22.0;;0.0;;0.0
1468;Allego GmbH;Fehrbelliner Platz 8;10707;Berlin;13.31408;52.49067;17.08.16;Normalladeeinrichtung;2;22.0;AC Steckdose Typ 2;11.0;AC Steckdose Typ 2;11.0;;0.0;;0.0
1469;Allego GmbH;Wittelsbacher Str. 19;10707;Berlin;13.308887;52.495371;13.11.15;Normalladeeinrichtung;2;22.0;AC Steckdose Typ 2;11.0;AC Steckdose Typ 2;11.0;;0.0;;0.0
1470;Allego GmbH;Düsseldorfer Str. 51;10707;Berlin;13.313894;52.496709;03.08.17;Normalladeeinrichtung;2;22.0;AC Steckdose Typ 2;11.0;AC Steckdose Typ 2;11.0;;0.0;;0.0
1471;Allego GmbH;Lehniner Platz /Kurfürstendamm vor 90;10709;Berlin;13.301795;52.499225;15.02.16;Normalladeeinrichtung;2;22.0;AC Steckdose Typ 2;11.0;AC Steckdose Typ 2;11.0;;0.0;;0.0
1472;Allego GmbH;Westfälische Str. 81;10709;Berlin;13.305454;52.493295;15.03.18;Normalladeeinrichtung;2;22.0;AC Steckdose Typ 2;11.0;AC Steckdose Typ 2;11.0;;0.0;;0.0
1473;Allego GmbH;Bornstedter Str. ggü. 20;10711;Berlin;13.287951;52.496901;23.08.16;Normalladeeinrichtung;2;22.0;AC Steckdose Typ 2;11.0;AC Steckdose Typ 2;11.0;;0.0;;0.0
1474;Allego GmbH;Aachener Str. 5;10713;Berlin;13.318856;52.481323;07.11.15;Normalladeeinrichtung;2;22.0;AC Steckdose Typ 2;11.0;AC Steckdose Typ 2;11.0;;0.0;;0.0
1475;Allego GmbH;Rudolstädter Str. 123;10713;Berlin;13.302828;52.487809;22.12.15;Normalladeeinrichtung;2;22.0;AC Steckdose Typ 2;11.0;AC Steckdose Typ 2;11.0;;0.0;;0.0
1476;Allego GmbH;Durlacher Str. 35;10715;Berlin;13.329605;52.481311;13.11.15;Normalladeeinrichtung;2;22.0;AC Steckdose Typ 2;11.0;AC Steckdose Typ 2;11.0;;0.0;;0.0
1477;Allego GmbH;Detmolder Str. 11A;10715;Berlin;13.323897;52.478824;27.03.18;Normalladeeinrichtung;1;11.0;AC Steckdose Typ 2;11.0;;0.0;;0.0;;0.0
1478;Allego GmbH;Mainzer Str. 22;10715;Berlin;13.323902;52.479959;08.02.18;Normalladeeinrichtung;2;22.0;AC Steckdose Typ 2;11.0;AC Steckdose Typ 2;11.0;;0.0;;0.0
1479;innogy SE;Güntzelstr.56/Ecke Bundesallee 14;10717;Berlin;13.330553;52.49095;20.05.09;Normalladeeinrichtung;2;44.0;AC Steckdose Typ 2;22.0;AC Steckdose Typ 2;22.0;;0.0;;0.0
1480;Allego GmbH;Trautenaustr. Ggü. 21;10717;Berlin;13.330154;52.493241;05.07.16;Normalladeeinrichtung;2;22.0;AC Steckdose Typ 2;11.0;AC Steckdose Typ 2;11.0;;0.0;;0.0
1481;innogy SE;Schaperstraße 17;10719;Berlin;13.329086;52.499416;20.05.09;Normalladeeinrichtung;2;44.0;AC Steckdose Typ 2;22.0;AC Steckdose Typ 2;22.0;;0.0;;0.0
1482;Allego GmbH;Ludwigkirchstr. ggü. 6;10719;Berlin;13.324219;52.497883;22.12.15;Normalladeeinrichtung;2;22.0;AC Steckdose Typ 2;11.0;AC Steckdose Typ 2;11.0;;0.0;;0.0
1483;Allego GmbH;Uhlandstr. 61;10719;Berlin;13.323631;52.494521;20.11.15;Normalladeeinrichtung;2;22.0;AC Steckdose Typ 2;11.0;AC Steckdose Typ 2;11.0;;0.0;;0.0
1484;innogy SE;Motzstraße 43;10777;Berlin;13.344862;52.496774;28.09.12;Normalladeeinrichtung;2;44.0;AC Steckdose Typ 2;22.0;AC Steckdose Typ 2;22.0;;0.0;;0.0
1485;Allego GmbH;Fuggerstr. 34;10777;Berlin;13.342238;52.499237;22.06.16;Normalladeeinrichtung;2;22.0;AC Steckdose Typ 2;11.0;AC Steckdose Typ 2;11.0;;0.0;;0.0
1486;Allego GmbH;Eisenacher Str. 1;10777;Berlin;13.349617;52.500134;04.08.16;Normalladeeinrichtung;2;22.0;AC Steckdose Typ 2;11.0;AC Steckdose Typ 2;11.0;;0.0;;0.0
1487;Allego GmbH;Eisenachstr. 102;10781;Berlin;13.349851;52.494823;05.08.16;Normalladeeinrichtung;2;22.0;AC Steckdose Typ 2;11.0;AC Steckdose Typ 2;11.0;;0.0;;0.0
1488;Allego GmbH;Pallasstr. 2;10781;Berlin;13.360266;52.494506;14.03.16;Normalladeeinrichtung;2;22.0;AC Steckdose Typ 2;11.0;AC Steckdose Typ 2;11.0;;0.0;;0.0
1489;Allego GmbH;Eisenacher Str. 32;10781;Berlin;13.349171;52.491716;22.02.18;Normalladeeinrichtung;2;22.0;AC Steckdose Typ 2;11.0;AC Steckdose Typ 2;11.0;;0.0;;0.0
1490;Allego GmbH;Frobenstr. Ggü. 22;10783;Berlin;13.359538;52.498649;04.03.16;Normalladeeinrichtung;2;22.0;AC Steckdose Typ 2;11.0;AC Steckdose Typ 2;11.0;;0.0;;0.0
1491;innogy SE;Bellevuestr. 3;10785;Berlin;13.373844;52.510428;17.07.09;Normalladeeinrichtung;2;44.0;AC Steckdose Typ 2;22.0;AC Steckdose Typ 2;22.0;;0.0;;0.0
1492;innogy SE;Lützowplatz 11;10785;Berlin;13.353095;52.504097;15.07.10;Normalladeeinrichtung;2;44.0;AC Steckdose Typ 2;22.0;AC Steckdose Typ 2;22.0;;0.0;;0.0
1493;Allego GmbH;Kurfürstenstr. 164;10785;Berlin;13.366073;52.499244;12.12.16;Normalladeeinrichtung;2;22.0;AC Steckdose Typ 2;11.0;AC Steckdose Typ 2;11.0;;0.0;;0.0
1494;Allego GmbH;Einemstr. 25;10785;Berlin;13.352832;52.503742;10.01.17;Normalladeeinrichtung;2;22.0;AC Steckdose Typ 2;11.0;AC Steckdose Typ 2;11.0;;0.0;;0.0
1495;Allego GmbH;Inge-Beisheim-Platz 1;10785;Berlin;13.376732;52.511446;01.09.16;Normalladeeinrichtung;1;11.0;AC Steckdose Typ 2;11.0;;0.0;;0.0;;0.0
1496;Allego GmbH;Inge-Beisheim-Platz 1;10785;Berlin;13.376732;52.511446;01.09.16;Normalladeeinrichtung;1;11.0;AC Steckdose Typ 2;11.0;;0.0;;0.0;;0.0
1497;Allego GmbH;Inge-Beisheim-Platz 1;10785;Berlin;13.376732;52.511446;01.09.16;Normalladeeinrichtung;1;11.0;AC Steckdose Typ 2;11.0;;0.0;;0.0;;0.0
1498;Allego GmbH;Lützowstr. 113;10785;Berlin;13.370846;52.501842;12.07.17;Normalladeeinrichtung;2;22.0;AC Steckdose Typ 2;11.0;AC Steckdose Typ 2;11.0;;0.0;;0.0
1499;innogy SE;Stülerstraße 11;10787;Berlin;13.349137;52.507832;13.04.10;Normalladeeinrichtung;2;44.0;AC Steckdose Typ 2;22.0;AC Steckdose Typ 2;22.0;;0.0;;0.0
1500;innogy SE;Burggrafenstraße 6;10787;Berlin;13.343569;52.505073;23.05.12;Normalladeeinrichtung;2;44.0;AC Steckdose Typ 2;22.0;AC Steckdose Typ 2;22.0;;0.0;;0.0
1501;Allego GmbH;Keithstr. 1;10787;Berlin;13.345728;52.501532;02.06.16;Normalladeeinrichtung;2;22.0;AC Steckdose Typ 2;11.0;AC Steckdose Typ 2;11.0;;0.0;;0.0
1502;Allego GmbH;Budapester Str. 11;10787;Berlin;13.346073;52.506636;21.03.17;Normalladeeinrichtung;2;22.0;AC Steckdose Typ 2;11.0;AC Steckdose Typ 2;11.0;;0.0;;0.0
1503;innogy SE;Augsburger Str. 25;10789;Berlin;13.335301;52.501585;20.05.09;Normalladeeinrichtung;2;44.0;AC Steckdose Typ 2;22.0;AC Steckdose Typ 2;22.0;;0.0;;0.0
1504;innogy SE;Bayreuther Straße 36;10789;Berlin;13.343711;52.501225;23.12.11;Normalladeeinrichtung;2;44.0;AC Steckdose Typ 2;22.0;AC Steckdose Typ 2;22.0;;0.0;;0.0
1505;Allego GmbH;Apostel-Paulus-Str. 5;10823;Berlin;13.349555;52.488368;19.10.16;Normalladeeinrichtung;2;22.0;AC Steckdose Typ 2;11.0;AC Steckdose Typ 2;11.0;;0.0;;0.0
1506;innogy SE;Grunewaldstraße 57;10825;Berlin;13.340837;52.488661;23.05.12;Normalladeeinrichtung;2;44.0;AC Steckdose Typ 2;22.0;AC Steckdose Typ 2;22.0;;0.0;;0.0
1507;Allego GmbH;Fritz-Elsas-Str. 22;10825;Berlin;13.346442;52.482535;02.06.16;Normalladeeinrichtung;2;22.0;AC Steckdose Typ 2;11.0;AC Steckdose Typ 2;11.0;;0.0;;0.0
1508;Allego GmbH;Badensche Str. 8;10825;Berlin;13.337844;52.485822;28.10.16;Normalladeeinrichtung;2;22.0;AC Steckdose Typ 2;11.0;AC Steckdose Typ 2;11.0;;0.0;;0.0
1509;Allego GmbH;Berchtesgadener Str.13;10825;Berlin;13.343806;52.488831;10.03.16;Normalladeeinrichtung;2;22.0;AC Steckdose Typ 2;11.0;AC Steckdose Typ 2;11.0;;0.0;;0.0
1510;Allego GmbH;Belziger Str. 19;10825;Berlin;13.354516;52.487371;23.02.16;Normalladeeinrichtung;2;22.0;AC Steckdose Typ 2;11.0;AC Steckdose Typ 2;11.0;;0.0;;0.0
1511;Allego GmbH;Helmstr. 10;10827;Berlin;13.359963;52.48853;15.02.16;Normalladeeinrichtung;2;22.0;AC Steckdose Typ 2;11.0;AC Steckdose Typ 2;11.0;;0.0;;0.0
1512;Allego GmbH;Großgörschenstr. Vor 1;10827;Berlin;13.361049;52.491234;05.02.16;Normalladeeinrichtung;2;22.0;AC Steckdose Typ 2;11.0;AC Steckdose Typ 2;11.0;;0.0;;0.0
1513;Allego GmbH;Lotte-Laserstein-Straße DB Südkreuz;10829;Berlin;13.3642;52.47574;18.09.15;Schnellladeeinrichtung;2;93.0;DC Kupplung Combo, DC CHAdeMO;50.0;AC Kupplung Typ 2;43.0;;0.0;;0.0
1514;Allego GmbH;Leberstr. 6;10829;Berlin;13.361404;52.485471;04.03.16;Normalladeeinrichtung;2;22.0;AC Steckdose Typ 2;11.0;AC Steckdose Typ 2;11.0;;0.0;;0.0
1515;inno2grid GmbH;EUREF-Campus 15;10829;Berlin;13.355319;52.480154;01.06.16;Normalladeeinrichtung;4;88.0;AC Steckdose Typ 2;22.0;AC Steckdose Typ 2;22.0;AC Steckdose Typ 2;22.0;AC Steckdose Typ 2;22.0
1516;Gesellschaft für verteilte Energiesysteme mbH;EUREF-Campus 21/22;10829;Berlin;13.356835;52.480792;19.10.18;Normalladeeinrichtung;1;11.0;AC Steckdose Typ 2;11.0;;0.0;;0.0;;0.0
1517;Gesellschaft für verteilte Energiesysteme mbH;EUREF-Campus 21/22;10829;Berlin;13.356927;52.480834;19.10.18;Normalladeeinrichtung;1;11.0;AC Steckdose Typ 2;11.0;;0.0;;0.0;;0.0
1518;Gesellschaft für verteilte Energiesysteme mbH;EUREF-Campus 21/22;10829;Berlin;13.357124;52.480931;19.10.18;Normalladeeinrichtung;1;11.0;AC Steckdose Typ 2;11.0;;0.0;;0.0;;0.0
1519;Gesellschaft für verteilte Energiesysteme mbH;EUREF-Campus 21/22;10829;Berlin;13.357018;52.48098;19.10.18;Normalladeeinrichtung;1;11.0;AC Steckdose Typ 2;11.0;;0.0;;0.0;;0.0
1520;Gesellschaft für verteilte Energiesysteme mbH;EUREF-Campus 21/22;10829;Berlin;13.356947;52.481024;19.10.18;Normalladeeinrichtung;1;11.0;AC Steckdose Typ 2;11.0;;0.0;;0.0;;0.0
1521;Gesellschaft für verteilte Energiesysteme mbH;EUREF-Campus 21/22;10829;Berlin;13.356849;52.481086;19.10.18;Normalladeeinrichtung;1;11.0;AC Steckdose Typ 2;11.0;;0.0;;0.0;;0.0
1522;Gesellschaft für verteilte Energiesysteme mbH;EUREF-Campus 21/22;10829;Berlin;13.356752;52.481118;19.10.18;Normalladeeinrichtung;1;11.0;AC Steckdose Typ 2;11.0;;0.0;;0.0;;0.0
1523;Gesellschaft für verteilte Energiesysteme mbH;EUREF-Campus 21/22;10829;Berlin;13.356673;52.481132;19.10.18;Normalladeeinrichtung;1;11.0;AC Steckdose Typ 2;11.0;;0.0;;0.0;;0.0
1524;Gesellschaft für verteilte Energiesysteme mbH;EUREF-Campus 21/22;10829;Berlin;13.356598;52.481134;19.10.18;Normalladeeinrichtung;1;11.0;AC Steckdose Typ 2;11.0;;0.0;;0.0;;0.0
1525;Gesellschaft für verteilte Energiesysteme mbH;EUREF-Campus 21/22;10829;Berlin;13.356509;52.481126;19.10.18;Normalladeeinrichtung;1;11.0;AC Steckdose Typ 2;11.0;;0.0;;0.0;;0.0
1526;Gesellschaft für verteilte Energiesysteme mbH;EUREF-Campus 21/22;10829;Berlin;13.356435;52.481102;19.10.18;Normalladeeinrichtung;1;11.0;AC Steckdose Typ 2;11.0;;0.0;;0.0;;0.0
1527;Gesellschaft für verteilte Energiesysteme mbH;EUREF-Campus 21/22;10829;Berlin;13.35639;52.481066;19.10.18;Normalladeeinrichtung;1;11.0;AC Steckdose Typ 2;11.0;;0.0;;0.0;;0.0
1528;Gesellschaft für verteilte Energiesysteme mbH;EUREF-Campus 21/22;10829;Berlin;13.356296;52.481022;19.10.18;Normalladeeinrichtung;1;11.0;AC Steckdose Typ 2;11.0;;0.0;;0.0;;0.0
1529;Gesellschaft für verteilte Energiesysteme mbH;EUREF-Campus 21/22;10829;Berlin;13.356216;52.48093;19.10.18;Normalladeeinrichtung;1;11.0;AC Steckdose Typ 2;11.0;;0.0;;0.0;;0.0
1530;Gesellschaft für verteilte Energiesysteme mbH;EUREF-Campus 21/22;10829;Berlin;13.356207;52.480858;19.10.18;Normalladeeinrichtung;1;11.0;AC Steckdose Typ 2;11.0;;0.0;;0.0;;0.0
1531;Gesellschaft für verteilte Energiesysteme mbH;EUREF-Campus 21/22;10829;Berlin;13.356236;52.480785;19.10.18;Normalladeeinrichtung;1;11.0;AC Steckdose Typ 2;11.0;;0.0;;0.0;;0.0
1532;Gesellschaft für verteilte Energiesysteme mbH;EUREF-Campus 21/22;10829;Berlin;13.356282;52.480739;19.10.18;Normalladeeinrichtung;1;11.0;AC Steckdose Typ 2;11.0;;0.0;;0.0;;0.0
1533;Gesellschaft für verteilte Energiesysteme mbH;EUREF-Campus 21/22;10829;Berlin;13.356337;52.480703;19.10.18;Normalladeeinrichtung;1;11.0;AC Steckdose Typ 2;11.0;;0.0;;0.0;;0.0
1534;Gesellschaft für verteilte Energiesysteme mbH;EUREF-Campus 21/22;10829;Berlin;13.356405;52.480662;19.10.18;Normalladeeinrichtung;1;11.0;AC Steckdose Typ 2;11.0;;0.0;;0.0;;0.0
1535;Gesellschaft für verteilte Energiesysteme mbH;EUREF-Campus 21/22;10829;Berlin;13.356477;52.48064;19.10.18;Normalladeeinrichtung;1;11.0;AC Steckdose Typ 2;11.0;;0.0;;0.0;;0.0
1536;Gesellschaft für verteilte Energiesysteme mbH;EUREF-Campus 21/22;10829;Berlin;13.356744;52.480977;19.10.18;Normalladeeinrichtung;1;11.0;AC Steckdose Typ 2;11.0;;0.0;;0.0;;0.0
1537;Gesellschaft für verteilte Energiesysteme mbH;EUREF-Campus 21/22;10829;Berlin;13.356671;52.481;19.10.18;Normalladeeinrichtung;1;11.0;AC Steckdose Typ 2;11.0;;0.0;;0.0;;0.0
1538;Gesellschaft für verteilte Energiesysteme mbH;EUREF-Campus 21/22;10829;Berlin;13.356584;52.481005;19.10.18;Normalladeeinrichtung;1;11.0;AC Steckdose Typ 2;11.0;;0.0;;0.0;;0.0
1539;Gesellschaft für verteilte Energiesysteme mbH;EUREF-Campus 21/22;10829;Berlin;13.356493;52.480984;19.10.18;Normalladeeinrichtung;1;11.0;AC Steckdose Typ 2;11.0;;0.0;;0.0;;0.0
1540;Gesellschaft für verteilte Energiesysteme mbH;EUREF-Campus 21/22;10829;Berlin;13.356424;52.480949;19.10.18;Normalladeeinrichtung;1;11.0;AC Steckdose Typ 2;11.0;;0.0;;0.0;;0.0
1541;Gesellschaft für verteilte Energiesysteme mbH;EUREF-Campus 21/22;10829;Berlin;13.356424;52.480949;19.10.18;Normalladeeinrichtung;1;11.0;AC Steckdose Typ 2;11.0;;0.0;;0.0;;0.0
1542;Gesellschaft für verteilte Energiesysteme mbH;EUREF-Campus 21/22;10829;Berlin;13.356389;52.480894;19.10.18;Normalladeeinrichtung;1;11.0;AC Steckdose Typ 2;11.0;;0.0;;0.0;;0.0
1543;Gesellschaft für verteilte Energiesysteme mbH;EUREF-Campus 21/22;10829;Berlin;13.35642;52.480823;19.10.18;Normalladeeinrichtung;1;11.0;AC Steckdose Typ 2;11.0;;0.0;;0.0;;0.0
1544;Gesellschaft für verteilte Energiesysteme mbH;EUREF-Campus 21/22;10829;Berlin;13.356645;52.480924;19.10.18;Normalladeeinrichtung;1;11.0;AC Steckdose Typ 2;11.0;;0.0;;0.0;;0.0
1545;Gesellschaft für verteilte Energiesysteme mbH;EUREF-Campus 21/22;10829;Berlin;13.356552;52.480937;19.10.18;Normalladeeinrichtung;1;11.0;AC Steckdose Typ 2;11.0;;0.0;;0.0;;0.0
1546;Gesellschaft für verteilte Energiesysteme mbH;EUREF-Campus 21/22;10829;Berlin;13.356515;52.480886;19.10.18;Normalladeeinrichtung;1;11.0;AC Steckdose Typ 2;11.0;;0.0;;0.0;;0.0
1547;Gesellschaft für verteilte Energiesysteme mbH;EUREF-Campus 21/22;10829;Berlin;13.356609;52.48084;19.10.18;Normalladeeinrichtung;1;11.0;AC Steckdose Typ 2;11.0;;0.0;;0.0;;0.0
1548;Gesellschaft für verteilte Energiesysteme mbH;EUREF-Campus 21/22;10829;Berlin;13.356698;52.480875;19.10.18;Normalladeeinrichtung;1;11.0;AC Steckdose Typ 2;11.0;;0.0;;0.0;;0.0
1549;Gesellschaft für verteilte Energiesysteme mbH;EUREF-Campus 21/22;10829;Berlin;13.356768;52.480898;19.10.18;Normalladeeinrichtung;1;11.0;AC Steckdose Typ 2;11.0;;0.0;;0.0;;0.0
1550;Gesellschaft für verteilte Energiesysteme mbH;EUREF-Campus 21/22;10829;Berlin;13.356854;52.480932;19.10.18;Normalladeeinrichtung;1;11.0;AC Steckdose Typ 2;11.0;;0.0;;0.0;;0.0
1551;Senertec Center Berlin Brandenburg GmbH;Wilhelm-Kabus-Str. 79 / Naumannstr. 81;10829;Berlin;13.363947;52.478634;30.11.18;Normalladeeinrichtung;2;22.0;AC Steckdose Typ 2;11.0;AC Steckdose Typ 2;11.0;;0.0;;0.0
1552;Allego GmbH;Mehringdamm 10;10961;Berlin;13.388703;52.497232;31.05.16;Normalladeeinrichtung;2;22.0;AC Steckdose Typ 2;11.0;AC Steckdose Typ 2;11.0;;0.0;;0.0
1553;Allego GmbH;Südstern 14;10961;Berlin;13.407274;52.488685;25.02.16;Normalladeeinrichtung;2;22.0;AC Steckdose Typ 2;11.0;AC Steckdose Typ 2;11.0;;0.0;;0.0
1554;Allego GmbH;Blücherstr. 19;10961;Berlin;13.398243;52.4948;05.12.15;Normalladeeinrichtung;2;22.0;AC Steckdose Typ 2;11.0;AC Steckdose Typ 2;11.0;;0.0;;0.0
1555;Allego GmbH;Solmsstr. 16;10961;Berlin;13.390709;52.491988;10.10.15;Normalladeeinrichtung;2;22.0;AC Steckdose Typ 2;11.0;AC Steckdose Typ 2;11.0;;0.0;;0.0
1556;Allego GmbH;Nostitzstr. 36;10961;Berlin;13.390284;52.489861;03.08.17;Normalladeeinrichtung;2;22.0;AC Steckdose Typ 2;11.0;AC Steckdose Typ 2;11.0;;0.0;;0.0
1557;innogy SE;Gabriele-Tergit-Promenade 1;10963;Berlin;13.376504;52.508248;15.04.10;Normalladeeinrichtung;2;44.0;AC Steckdose Typ 2;22.0;AC Steckdose Typ 2;22.0;;0.0;;0.0
1558;Allego GmbH;Bernburger Str. 34;10963;Berlin;13.380887;52.504762;28.11.15;Normalladeeinrichtung;2;22.0;AC Steckdose Typ 2;11.0;AC Steckdose Typ 2;11.0;;0.0;;0.0
